[
  {
    "pro_zh": "北京",
    "pro_en": "beijing",
    "cityList": [
      {
        "code": "CN101010100",
        "city_en": "beijing",
        "city_zh": "北京",
        "country_code": "CN",
        "sup_city_en": "beijing",
        "sup_city_zh": "北京",
        "latitude": "39.904989",
        "longitude": "116.405285"
      },
      {
        "code": "CN101010200",
        "city_en": "haidian",
        "city_zh": "海淀",
        "country_code": "CN",
        "sup_city_en": "beijing",
        "sup_city_zh": "北京",
        "latitude": "39.956074",
        "longitude": "116.310316"
      },
      {
        "code": "CN101010300",
        "city_en": "chaoyang",
        "city_zh": "朝阳",
        "country_code": "CN",
        "sup_city_en": "beijing",
        "sup_city_zh": "北京",
        "latitude": "39.921489",
        "longitude": "116.486409"
      },
      {
        "code": "CN101010400",
        "city_en": "shunyi",
        "city_zh": "顺义",
        "country_code": "CN",
        "sup_city_en": "beijing",
        "sup_city_zh": "北京",
        "latitude": "40.128936",
        "longitude": "116.653525"
      },
      {
        "code": "CN101010500",
        "city_en": "huairou",
        "city_zh": "怀柔",
        "country_code": "CN",
        "sup_city_en": "beijing",
        "sup_city_zh": "北京",
        "latitude": "40.324272",
        "longitude": "116.637122"
      },
      {
        "code": "CN101010600",
        "city_en": "tongzhou",
        "city_zh": "通州",
        "country_code": "CN",
        "sup_city_en": "beijing",
        "sup_city_zh": "北京",
        "latitude": "39.902486",
        "longitude": "116.658603"
      },
      {
        "code": "CN101010700",
        "city_en": "changping",
        "city_zh": "昌平",
        "country_code": "CN",
        "sup_city_en": "beijing",
        "sup_city_zh": "北京",
        "latitude": "40.218085",
        "longitude": "116.235906"
      },
      {
        "code": "CN101010800",
        "city_en": "yanqing",
        "city_zh": "延庆",
        "country_code": "CN",
        "sup_city_en": "beijing",
        "sup_city_zh": "北京",
        "latitude": "40.465325",
        "longitude": "115.985006"
      },
      {
        "code": "CN101010900",
        "city_en": "fengtai",
        "city_zh": "丰台",
        "country_code": "CN",
        "sup_city_en": "beijing",
        "sup_city_zh": "北京",
        "latitude": "39.863642",
        "longitude": "116.286968"
      },
      {
        "code": "CN101011000",
        "city_en": "shijingshan",
        "city_zh": "石景山",
        "country_code": "CN",
        "sup_city_en": "beijing",
        "sup_city_zh": "北京",
        "latitude": "39.914601",
        "longitude": "116.195445"
      },
      {
        "code": "CN101011100",
        "city_en": "daxing",
        "city_zh": "大兴",
        "country_code": "CN",
        "sup_city_en": "beijing",
        "sup_city_zh": "北京",
        "latitude": "39.728908",
        "longitude": "116.338033"
      },
      {
        "code": "CN101011200",
        "city_en": "fangshan",
        "city_zh": "房山",
        "country_code": "CN",
        "sup_city_en": "beijing",
        "sup_city_zh": "北京",
        "latitude": "39.735535",
        "longitude": "116.139157"
      },
      {
        "code": "CN101011300",
        "city_en": "miyun",
        "city_zh": "密云",
        "country_code": "CN",
        "sup_city_en": "beijing",
        "sup_city_zh": "北京",
        "latitude": "40.377362",
        "longitude": "116.843352"
      },
      {
        "code": "CN101011400",
        "city_en": "mentougou",
        "city_zh": "门头沟",
        "country_code": "CN",
        "sup_city_en": "beijing",
        "sup_city_zh": "北京",
        "latitude": "39.937183",
        "longitude": "116.105381"
      },
      {
        "code": "CN101011500",
        "city_en": "pinggu",
        "city_zh": "平谷",
        "country_code": "CN",
        "sup_city_en": "beijing",
        "sup_city_zh": "北京",
        "latitude": "40.144783",
        "longitude": "117.112335"
      },
      {
        "code": "CN101011600",
        "city_en": "dongcheng",
        "city_zh": "东城",
        "country_code": "CN",
        "sup_city_en": "dongcheng",
        "sup_city_zh": "东城",
        "latitude": "39.917544",
        "longitude": "116.418757"
      },
      {
        "code": "CN101011700",
        "city_en": "xicheng",
        "city_zh": "西城",
        "country_code": "CN",
        "sup_city_en": "xicheng",
        "sup_city_zh": "西城",
        "latitude": "39.915309",
        "longitude": "116.366794"
      }
    ]
  },
  {
    "pro_zh": "上海",
    "pro_en": "shanghai",
    "cityList": [
      {
        "code": "CN101020100",
        "city_en": "shanghai",
        "city_zh": "上海",
        "country_code": "CN",
        "sup_city_en": "shanghai",
        "sup_city_zh": "上海",
        "latitude": "31.231706",
        "longitude": "121.472644"
      },
      {
        "code": "CN101020200",
        "city_en": "minhang",
        "city_zh": "闵行",
        "country_code": "CN",
        "sup_city_en": "shanghai",
        "sup_city_zh": "上海",
        "latitude": "31.111658",
        "longitude": "121.375972"
      },
      {
        "code": "CN101020300",
        "city_en": "baoshan",
        "city_zh": "宝山",
        "country_code": "CN",
        "sup_city_en": "shanghai",
        "sup_city_zh": "上海",
        "latitude": "31.398896",
        "longitude": "121.489934"
      },
      {
        "code": "CN101020400",
        "city_en": "huangpu",
        "city_zh": "黄浦",
        "country_code": "CN",
        "sup_city_en": "huangpu",
        "sup_city_zh": "黄浦",
        "latitude": "31.222771",
        "longitude": "121.490317"
      },
      {
        "code": "CN101020500",
        "city_en": "jiading",
        "city_zh": "嘉定",
        "country_code": "CN",
        "sup_city_en": "shanghai",
        "sup_city_zh": "上海",
        "latitude": "31.383524",
        "longitude": "121.250333"
      },
      {
        "code": "CN101020600",
        "city_en": "pudongxinqu",
        "city_zh": "浦东新区",
        "country_code": "CN",
        "sup_city_en": "shanghai",
        "sup_city_zh": "上海",
        "latitude": "31.245944",
        "longitude": "121.567706"
      },
      {
        "code": "CN101020700",
        "city_en": "jinshan",
        "city_zh": "金山",
        "country_code": "CN",
        "sup_city_en": "shanghai",
        "sup_city_zh": "上海",
        "latitude": "30.724697",
        "longitude": "121.330736"
      },
      {
        "code": "CN101020800",
        "city_en": "qingpu",
        "city_zh": "青浦",
        "country_code": "CN",
        "sup_city_en": "shanghai",
        "sup_city_zh": "上海",
        "latitude": "31.151209",
        "longitude": "121.113021"
      },
      {
        "code": "CN101020900",
        "city_en": "songjiang",
        "city_zh": "松江",
        "country_code": "CN",
        "sup_city_en": "shanghai",
        "sup_city_zh": "上海",
        "latitude": "31.03047",
        "longitude": "121.223543"
      },
      {
        "code": "CN101021000",
        "city_en": "fengxian",
        "city_zh": "奉贤",
        "country_code": "CN",
        "sup_city_en": "shanghai",
        "sup_city_zh": "上海",
        "latitude": "30.912345",
        "longitude": "121.458472"
      },
      {
        "code": "CN101021100",
        "city_en": "chongming",
        "city_zh": "崇明",
        "country_code": "CN",
        "sup_city_en": "shanghai",
        "sup_city_zh": "上海",
        "latitude": "31.626946",
        "longitude": "121.397516"
      },
      {
        "code": "CN101021200",
        "city_en": "xuhui",
        "city_zh": "徐汇",
        "country_code": "CN",
        "sup_city_en": "shanghai",
        "sup_city_zh": "上海",
        "latitude": "31.179973",
        "longitude": "121.43752"
      },
      {
        "code": "CN101021300",
        "city_en": "changning",
        "city_zh": "长宁",
        "country_code": "CN",
        "sup_city_en": "changning",
        "sup_city_zh": "长宁",
        "latitude": "31.218123",
        "longitude": "121.4222"
      },
      {
        "code": "CN101021400",
        "city_en": "jingan",
        "city_zh": "静安",
        "country_code": "CN",
        "sup_city_en": "jingan",
        "sup_city_zh": "静安",
        "latitude": "31.229003",
        "longitude": "121.448224"
      },
      {
        "code": "CN101021500",
        "city_en": "putuo",
        "city_zh": "普陀",
        "country_code": "CN",
        "sup_city_en": "putuo",
        "sup_city_zh": "普陀",
        "latitude": "31.241701",
        "longitude": "121.392499"
      },
      {
        "code": "CN101021600",
        "city_en": "hongkou",
        "city_zh": "虹口",
        "country_code": "CN",
        "sup_city_en": "hongkou",
        "sup_city_zh": "虹口",
        "latitude": "31.26097",
        "longitude": "121.491832"
      },
      {
        "code": "CN101021700",
        "city_en": "yangpu",
        "city_zh": "杨浦",
        "country_code": "CN",
        "sup_city_en": "yangpu",
        "sup_city_zh": "杨浦",
        "latitude": "31.270755",
        "longitude": "121.522797"
      }
    ]
  },
  {
    "pro_zh": "天津",
    "pro_en": "tianjin",
    "cityList": [
      {
        "code": "CN101030100",
        "city_en": "tianjin",
        "city_zh": "天津",
        "country_code": "CN",
        "sup_city_en": "tianjin",
        "sup_city_zh": "天津",
        "latitude": "39.125596",
        "longitude": "117.190182"
      },
      {
        "code": "CN101030200",
        "city_en": "wuqing",
        "city_zh": "武清",
        "country_code": "CN",
        "sup_city_en": "tianjin",
        "sup_city_zh": "天津",
        "latitude": "39.376925",
        "longitude": "117.057959"
      },
      {
        "code": "CN101030300",
        "city_en": "baodi",
        "city_zh": "宝坻",
        "country_code": "CN",
        "sup_city_en": "tianjin",
        "sup_city_zh": "天津",
        "latitude": "39.716965",
        "longitude": "117.308094"
      },
      {
        "code": "CN101030400",
        "city_en": "dongli",
        "city_zh": "东丽",
        "country_code": "CN",
        "sup_city_en": "tianjin",
        "sup_city_zh": "天津",
        "latitude": "39.087764",
        "longitude": "117.313967"
      },
      {
        "code": "CN101030500",
        "city_en": "xiqing",
        "city_zh": "西青",
        "country_code": "CN",
        "sup_city_en": "tianjin",
        "sup_city_zh": "天津",
        "latitude": "39.139446",
        "longitude": "117.012247"
      },
      {
        "code": "CN101030600",
        "city_en": "beichen",
        "city_zh": "北辰",
        "country_code": "CN",
        "sup_city_en": "tianjin",
        "sup_city_zh": "天津",
        "latitude": "39.225555",
        "longitude": "117.13482"
      },
      {
        "code": "CN101030700",
        "city_en": "ninghe",
        "city_zh": "宁河",
        "country_code": "CN",
        "sup_city_en": "tianjin",
        "sup_city_zh": "天津",
        "latitude": "39.328886",
        "longitude": "117.82828"
      },
      {
        "code": "CN101030800",
        "city_en": "heping",
        "city_zh": "和平",
        "country_code": "CN",
        "sup_city_en": "heping",
        "sup_city_zh": "和平",
        "latitude": "39.118327",
        "longitude": "117.195907"
      },
      {
        "code": "CN101030900",
        "city_en": "jinghai",
        "city_zh": "静海",
        "country_code": "CN",
        "sup_city_en": "tianjin",
        "sup_city_zh": "天津",
        "latitude": "38.935671",
        "longitude": "116.925304"
      },
      {
        "code": "CN101031000",
        "city_en": "jinnan",
        "city_zh": "津南",
        "country_code": "CN",
        "sup_city_en": "tianjin",
        "sup_city_zh": "天津",
        "latitude": "38.989577",
        "longitude": "117.382549"
      },
      {
        "code": "CN101031100",
        "city_en": "binhaixinqu",
        "city_zh": "滨海新区",
        "country_code": "CN",
        "sup_city_en": "tianjin",
        "sup_city_zh": "天津",
        "latitude": "39.032846",
        "longitude": "117.654173"
      },
      {
        "code": "CN101031200",
        "city_en": "hedong",
        "city_zh": "河东",
        "country_code": "CN",
        "sup_city_en": "hedong",
        "sup_city_zh": "河东",
        "latitude": "39.122125",
        "longitude": "117.226568"
      },
      {
        "code": "CN101031300",
        "city_en": "hexi",
        "city_zh": "河西",
        "country_code": "CN",
        "sup_city_en": "hexi",
        "sup_city_zh": "河西",
        "latitude": "39.101897",
        "longitude": "117.217536"
      },
      {
        "code": "CN101031400",
        "city_en": "jizhou",
        "city_zh": "蓟州",
        "country_code": "CN",
        "sup_city_en": "tianjin",
        "sup_city_zh": "天津",
        "latitude": "40.045342",
        "longitude": "117.407449"
      },
      {
        "code": "CN101031500",
        "city_en": "nankai",
        "city_zh": "南开",
        "country_code": "CN",
        "sup_city_en": "nankai",
        "sup_city_zh": "南开",
        "latitude": "39.120474",
        "longitude": "117.164143"
      },
      {
        "code": "CN101031600",
        "city_en": "hebei",
        "city_zh": "河北",
        "country_code": "CN",
        "sup_city_en": "hebei",
        "sup_city_zh": "河北",
        "latitude": "39.156632",
        "longitude": "117.201569"
      },
      {
        "code": "CN101031700",
        "city_en": "hongqiao",
        "city_zh": "红桥",
        "country_code": "CN",
        "sup_city_en": "hongqiao",
        "sup_city_zh": "红桥",
        "latitude": "39.175066",
        "longitude": "117.163301"
      }
    ]
  },
  {
    "pro_zh": "重庆",
    "pro_en": "zhongqing",
    "cityList": [
      {
        "code": "CN101040100",
        "city_en": "chongqing",
        "city_zh": "重庆",
        "country_code": "CN",
        "sup_city_en": "chongqing",
        "sup_city_zh": "重庆",
        "latitude": "29.291965",
        "longitude": "108.170255"
      },
      {
        "code": "CN101040200",
        "city_en": "yongchuan",
        "city_zh": "永川",
        "country_code": "CN",
        "sup_city_en": "chongqing",
        "sup_city_zh": "重庆",
        "latitude": "29.348748",
        "longitude": "105.894714"
      },
      {
        "code": "CN101040300",
        "city_en": "hechuan",
        "city_zh": "合川",
        "country_code": "CN",
        "sup_city_en": "chongqing",
        "sup_city_zh": "重庆",
        "latitude": "29.990993",
        "longitude": "106.265554"
      },
      {
        "code": "CN101040400",
        "city_en": "nanchuan",
        "city_zh": "南川",
        "country_code": "CN",
        "sup_city_en": "chongqing",
        "sup_city_zh": "重庆",
        "latitude": "29.156646",
        "longitude": "107.098153"
      },
      {
        "code": "CN101040500",
        "city_en": "jiangjin",
        "city_zh": "江津",
        "country_code": "CN",
        "sup_city_en": "chongqing",
        "sup_city_zh": "重庆",
        "latitude": "29.283387",
        "longitude": "106.253156"
      },
      {
        "code": "CN101040700",
        "city_en": "yubei",
        "city_zh": "渝北",
        "country_code": "CN",
        "sup_city_en": "chongqing",
        "sup_city_zh": "重庆",
        "latitude": "29.601451",
        "longitude": "106.512851"
      },
      {
        "code": "CN101040800",
        "city_en": "beibei",
        "city_zh": "北碚",
        "country_code": "CN",
        "sup_city_en": "chongqing",
        "sup_city_zh": "重庆",
        "latitude": "29.82543",
        "longitude": "106.437868"
      },
      {
        "code": "CN101040900",
        "city_en": "banan",
        "city_zh": "巴南",
        "country_code": "CN",
        "sup_city_en": "chongqing",
        "sup_city_zh": "重庆",
        "latitude": "29.381919",
        "longitude": "106.519423"
      },
      {
        "code": "CN101041000",
        "city_en": "changshou",
        "city_zh": "长寿",
        "country_code": "CN",
        "sup_city_en": "chongqing",
        "sup_city_zh": "重庆",
        "latitude": "29.833671",
        "longitude": "107.074854"
      },
      {
        "code": "CN101041100",
        "city_en": "qianjiang",
        "city_zh": "黔江",
        "country_code": "CN",
        "sup_city_en": "chongqing",
        "sup_city_zh": "重庆",
        "latitude": "29.527548",
        "longitude": "108.782577"
      },
      {
        "code": "CN101041200",
        "city_en": "yuzhong",
        "city_zh": "渝中",
        "country_code": "CN",
        "sup_city_en": "yuzhong",
        "sup_city_zh": "渝中",
        "latitude": "29.556742",
        "longitude": "106.56288"
      },
      {
        "code": "CN101041300",
        "city_en": "wanzhou",
        "city_zh": "万州",
        "country_code": "CN",
        "sup_city_en": "chongqing",
        "sup_city_zh": "重庆",
        "latitude": "30.807807",
        "longitude": "108.380246"
      },
      {
        "code": "CN101041400",
        "city_en": "fuling",
        "city_zh": "涪陵",
        "country_code": "CN",
        "sup_city_en": "chongqing",
        "sup_city_zh": "重庆",
        "latitude": "29.703652",
        "longitude": "107.394905"
      },
      {
        "code": "CN101041500",
        "city_en": "kaixian",
        "city_zh": "开县",
        "country_code": "CN",
        "sup_city_en": "chongqing",
        "sup_city_zh": "重庆",
        "latitude": "31.12",
        "longitude": "108.26"
      },
      {
        "code": "CN101041600",
        "city_en": "chengkou",
        "city_zh": "城口",
        "country_code": "CN",
        "sup_city_en": "chongqing",
        "sup_city_zh": "重庆",
        "latitude": "31.946293",
        "longitude": "108.6649"
      },
      {
        "code": "CN101041700",
        "city_en": "yunyang",
        "city_zh": "云阳",
        "country_code": "CN",
        "sup_city_en": "chongqing",
        "sup_city_zh": "重庆",
        "latitude": "30.930529",
        "longitude": "108.697698"
      },
      {
        "code": "CN101041800",
        "city_en": "wuxi",
        "city_zh": "巫溪",
        "country_code": "CN",
        "sup_city_en": "chongqing",
        "sup_city_zh": "重庆",
        "latitude": "31.3966",
        "longitude": "109.628912"
      },
      {
        "code": "CN101041900",
        "city_en": "fengjie",
        "city_zh": "奉节",
        "country_code": "CN",
        "sup_city_en": "chongqing",
        "sup_city_zh": "重庆",
        "latitude": "31.019967",
        "longitude": "109.465774"
      },
      {
        "code": "CN101042000",
        "city_en": "wushan",
        "city_zh": "巫山",
        "country_code": "CN",
        "sup_city_en": "chongqing",
        "sup_city_zh": "重庆",
        "latitude": "31.074843",
        "longitude": "109.878928"
      },
      {
        "code": "CN101042100",
        "city_en": "tongnan",
        "city_zh": "潼南",
        "country_code": "CN",
        "sup_city_en": "chongqing",
        "sup_city_zh": "重庆",
        "latitude": "30.189554",
        "longitude": "105.841818"
      },
      {
        "code": "CN101042200",
        "city_en": "dianjiang",
        "city_zh": "垫江",
        "country_code": "CN",
        "sup_city_en": "chongqing",
        "sup_city_zh": "重庆",
        "latitude": "30.330012",
        "longitude": "107.348692"
      },
      {
        "code": "CN101042300",
        "city_en": "liangping",
        "city_zh": "梁平",
        "country_code": "CN",
        "sup_city_en": "chongqing",
        "sup_city_zh": "重庆",
        "latitude": "30.672168",
        "longitude": "107.800034"
      },
      {
        "code": "CN101042400",
        "city_en": "zhongxian",
        "city_zh": "忠县",
        "country_code": "CN",
        "sup_city_en": "chongqing",
        "sup_city_zh": "重庆",
        "latitude": "30.291537",
        "longitude": "108.037518"
      },
      {
        "code": "CN101042500",
        "city_en": "shizhu",
        "city_zh": "石柱",
        "country_code": "CN",
        "sup_city_en": "chongqing",
        "sup_city_zh": "重庆",
        "latitude": "29.99853",
        "longitude": "108.112448"
      },
      {
        "code": "CN101042600",
        "city_en": "dazu",
        "city_zh": "大足",
        "country_code": "CN",
        "sup_city_en": "chongqing",
        "sup_city_zh": "重庆",
        "latitude": "29.700498",
        "longitude": "105.715319"
      },
      {
        "code": "CN101042700",
        "city_en": "rongchang",
        "city_zh": "荣昌",
        "country_code": "CN",
        "sup_city_en": "chongqing",
        "sup_city_zh": "重庆",
        "latitude": "29.403627",
        "longitude": "105.594061"
      },
      {
        "code": "CN101042800",
        "city_en": "tongliang",
        "city_zh": "铜梁",
        "country_code": "CN",
        "sup_city_en": "chongqing",
        "sup_city_zh": "重庆",
        "latitude": "29.839944",
        "longitude": "106.054948"
      },
      {
        "code": "CN101042900",
        "city_en": "bishan",
        "city_zh": "璧山",
        "country_code": "CN",
        "sup_city_en": "chongqing",
        "sup_city_zh": "重庆",
        "latitude": "29.593581",
        "longitude": "106.231126"
      },
      {
        "code": "CN101043000",
        "city_en": "fengdu",
        "city_zh": "丰都",
        "country_code": "CN",
        "sup_city_en": "chongqing",
        "sup_city_zh": "重庆",
        "latitude": "29.866424",
        "longitude": "107.73248"
      },
      {
        "code": "CN101043100",
        "city_en": "wulong",
        "city_zh": "武隆",
        "country_code": "CN",
        "sup_city_en": "chongqing",
        "sup_city_zh": "重庆",
        "latitude": "29.32376",
        "longitude": "107.75655"
      },
      {
        "code": "CN101043200",
        "city_en": "pengshui",
        "city_zh": "彭水",
        "country_code": "CN",
        "sup_city_en": "chongqing",
        "sup_city_zh": "重庆",
        "latitude": "29.293856",
        "longitude": "108.166551"
      },
      {
        "code": "CN101043300",
        "city_en": "qijiang",
        "city_zh": "綦江",
        "country_code": "CN",
        "sup_city_en": "chongqing",
        "sup_city_zh": "重庆",
        "latitude": "29.028091",
        "longitude": "106.651417"
      },
      {
        "code": "CN101043400",
        "city_en": "youyang",
        "city_zh": "酉阳",
        "country_code": "CN",
        "sup_city_en": "chongqing",
        "sup_city_zh": "重庆",
        "latitude": "28.839828",
        "longitude": "108.767201"
      },
      {
        "code": "CN101043500",
        "city_en": "dadukou",
        "city_zh": "大渡口",
        "country_code": "CN",
        "sup_city_en": "dadukou",
        "sup_city_zh": "大渡口",
        "latitude": "29.481002",
        "longitude": "106.48613"
      },
      {
        "code": "CN101043600",
        "city_en": "xiushan",
        "city_zh": "秀山",
        "country_code": "CN",
        "sup_city_en": "chongqing",
        "sup_city_zh": "重庆",
        "latitude": "28.444772",
        "longitude": "108.996043"
      },
      {
        "code": "CN101043700",
        "city_en": "jiangbei",
        "city_zh": "江北",
        "country_code": "CN",
        "sup_city_en": "jiangbei",
        "sup_city_zh": "江北",
        "latitude": "29.575352",
        "longitude": "106.532844"
      },
      {
        "code": "CN101043800",
        "city_en": "shapingba",
        "city_zh": "沙坪坝",
        "country_code": "CN",
        "sup_city_en": "shapingba",
        "sup_city_zh": "沙坪坝",
        "latitude": "29.541224",
        "longitude": "106.4542"
      },
      {
        "code": "CN101043900",
        "city_en": "jiulongpo",
        "city_zh": "九龙坡",
        "country_code": "CN",
        "sup_city_en": "jiulongpo",
        "sup_city_zh": "九龙坡",
        "latitude": "29.523492",
        "longitude": "106.480989"
      },
      {
        "code": "CN101044000",
        "city_en": "nanan",
        "city_zh": "南岸",
        "country_code": "CN",
        "sup_city_en": "nanan",
        "sup_city_zh": "南岸",
        "latitude": "29.523992",
        "longitude": "106.560813"
      },
      {
        "code": "CN101044100",
        "city_en": "kaizhou",
        "city_zh": "开州",
        "country_code": "CN",
        "sup_city_en": "kaizhou",
        "sup_city_zh": "开州",
        "latitude": "31.167735",
        "longitude": "108.413317"
      }
    ]
  },
  {
    "pro_zh": "黑龙江",
    "pro_en": "heilongjiang",
    "cityList": [
      {
        "code": "CN101050101",
        "city_en": "haerbin",
        "city_zh": "哈尔滨",
        "country_code": "CN",
        "sup_city_en": "haerbin",
        "sup_city_zh": "哈尔滨",
        "latitude": "45.756967",
        "longitude": "126.642464"
      },
      {
        "code": "CN101050102",
        "city_en": "shuangcheng",
        "city_zh": "双城",
        "country_code": "CN",
        "sup_city_en": "haerbin",
        "sup_city_zh": "哈尔滨",
        "latitude": "45.377942",
        "longitude": "126.308784"
      },
      {
        "code": "CN101050103",
        "city_en": "hulan",
        "city_zh": "呼兰",
        "country_code": "CN",
        "sup_city_en": "haerbin",
        "sup_city_zh": "哈尔滨",
        "latitude": "45.98423",
        "longitude": "126.603302"
      },
      {
        "code": "CN101050104",
        "city_en": "acheng",
        "city_zh": "阿城",
        "country_code": "CN",
        "sup_city_en": "haerbin",
        "sup_city_zh": "哈尔滨",
        "latitude": "45.538372",
        "longitude": "126.972726"
      },
      {
        "code": "CN101050105",
        "city_en": "binxian",
        "city_zh": "宾县",
        "country_code": "CN",
        "sup_city_en": "haerbin",
        "sup_city_zh": "哈尔滨",
        "latitude": "45.759369",
        "longitude": "127.48594"
      },
      {
        "code": "CN101050106",
        "city_en": "yilan",
        "city_zh": "依兰",
        "country_code": "CN",
        "sup_city_en": "haerbin",
        "sup_city_zh": "哈尔滨",
        "latitude": "46.315105",
        "longitude": "129.565594"
      },
      {
        "code": "CN101050107",
        "city_en": "bayan",
        "city_zh": "巴彦",
        "country_code": "CN",
        "sup_city_en": "haerbin",
        "sup_city_zh": "哈尔滨",
        "latitude": "46.081889",
        "longitude": "127.403602"
      },
      {
        "code": "CN101050108",
        "city_en": "tonghe",
        "city_zh": "通河",
        "country_code": "CN",
        "sup_city_en": "haerbin",
        "sup_city_zh": "哈尔滨",
        "latitude": "45.977618",
        "longitude": "128.747786"
      },
      {
        "code": "CN101050109",
        "city_en": "fangzheng",
        "city_zh": "方正",
        "country_code": "CN",
        "sup_city_en": "haerbin",
        "sup_city_zh": "哈尔滨",
        "latitude": "45.839536",
        "longitude": "128.836131"
      },
      {
        "code": "CN101050110",
        "city_en": "yanshou",
        "city_zh": "延寿",
        "country_code": "CN",
        "sup_city_en": "haerbin",
        "sup_city_zh": "哈尔滨",
        "latitude": "45.455648",
        "longitude": "128.331886"
      },
      {
        "code": "CN101050111",
        "city_en": "shangzhi",
        "city_zh": "尚志",
        "country_code": "CN",
        "sup_city_en": "haerbin",
        "sup_city_zh": "哈尔滨",
        "latitude": "45.214953",
        "longitude": "127.968539"
      },
      {
        "code": "CN101050112",
        "city_en": "wuchang",
        "city_zh": "五常",
        "country_code": "CN",
        "sup_city_en": "haerbin",
        "sup_city_zh": "哈尔滨",
        "latitude": "44.919418",
        "longitude": "127.15759"
      },
      {
        "code": "CN101050113",
        "city_en": "mulan",
        "city_zh": "木兰",
        "country_code": "CN",
        "sup_city_en": "haerbin",
        "sup_city_zh": "哈尔滨",
        "latitude": "45.949826",
        "longitude": "128.042675"
      },
      {
        "code": "CN101050114",
        "city_en": "daoli",
        "city_zh": "道里",
        "country_code": "CN",
        "sup_city_en": "haerbin",
        "sup_city_zh": "哈尔滨",
        "latitude": "45.762035",
        "longitude": "126.612532"
      },
      {
        "code": "CN101050115",
        "city_en": "nangang",
        "city_zh": "南岗",
        "country_code": "CN",
        "sup_city_en": "haerbin",
        "sup_city_zh": "哈尔滨",
        "latitude": "45.755971",
        "longitude": "126.652098"
      },
      {
        "code": "CN101050116",
        "city_en": "daowai",
        "city_zh": "道外",
        "country_code": "CN",
        "sup_city_en": "haerbin",
        "sup_city_zh": "哈尔滨",
        "latitude": "45.78454",
        "longitude": "126.648838"
      },
      {
        "code": "CN101050117",
        "city_en": "pingfang",
        "city_zh": "平房",
        "country_code": "CN",
        "sup_city_en": "haerbin",
        "sup_city_zh": "哈尔滨",
        "latitude": "45.605567",
        "longitude": "126.629257"
      },
      {
        "code": "CN101050118",
        "city_en": "songbei",
        "city_zh": "松北",
        "country_code": "CN",
        "sup_city_en": "haerbin",
        "sup_city_zh": "哈尔滨",
        "latitude": "45.814656",
        "longitude": "126.563066"
      },
      {
        "code": "CN101050119",
        "city_en": "xiangfang",
        "city_zh": "香坊",
        "country_code": "CN",
        "sup_city_en": "haerbin",
        "sup_city_zh": "哈尔滨",
        "latitude": "45.713067",
        "longitude": "126.667049"
      },
      {
        "code": "CN101050201",
        "city_en": "qiqihaer",
        "city_zh": "齐齐哈尔",
        "country_code": "CN",
        "sup_city_en": "qiqihaer",
        "sup_city_zh": "齐齐哈尔",
        "latitude": "47.342081",
        "longitude": "123.95792"
      },
      {
        "code": "CN101050202",
        "city_en": "nehe",
        "city_zh": "讷河",
        "country_code": "CN",
        "sup_city_en": "qiqihaer",
        "sup_city_zh": "齐齐哈尔",
        "latitude": "48.481133",
        "longitude": "124.882172"
      },
      {
        "code": "CN101050203",
        "city_en": "longjiang",
        "city_zh": "龙江",
        "country_code": "CN",
        "sup_city_en": "qiqihaer",
        "sup_city_zh": "齐齐哈尔",
        "latitude": "47.336388",
        "longitude": "123.187225"
      },
      {
        "code": "CN101050204",
        "city_en": "gannan",
        "city_zh": "甘南",
        "country_code": "CN",
        "sup_city_en": "qiqihaer",
        "sup_city_zh": "齐齐哈尔",
        "latitude": "47.917838",
        "longitude": "123.506034"
      },
      {
        "code": "CN101050205",
        "city_en": "fuyu",
        "city_zh": "富裕",
        "country_code": "CN",
        "sup_city_en": "qiqihaer",
        "sup_city_zh": "齐齐哈尔",
        "latitude": "47.797172",
        "longitude": "124.469106"
      },
      {
        "code": "CN101050206",
        "city_en": "yian",
        "city_zh": "依安",
        "country_code": "CN",
        "sup_city_en": "qiqihaer",
        "sup_city_zh": "齐齐哈尔",
        "latitude": "47.890098",
        "longitude": "125.307561"
      },
      {
        "code": "CN101050207",
        "city_en": "baiquan",
        "city_zh": "拜泉",
        "country_code": "CN",
        "sup_city_en": "qiqihaer",
        "sup_city_zh": "齐齐哈尔",
        "latitude": "47.607363",
        "longitude": "126.091911"
      },
      {
        "code": "CN101050208",
        "city_en": "keshan",
        "city_zh": "克山",
        "country_code": "CN",
        "sup_city_en": "qiqihaer",
        "sup_city_zh": "齐齐哈尔",
        "latitude": "48.034342",
        "longitude": "125.874355"
      },
      {
        "code": "CN101050209",
        "city_en": "kedong",
        "city_zh": "克东",
        "country_code": "CN",
        "sup_city_en": "qiqihaer",
        "sup_city_zh": "齐齐哈尔",
        "latitude": "48.03732",
        "longitude": "126.249094"
      },
      {
        "code": "CN101050210",
        "city_en": "tailai",
        "city_zh": "泰来",
        "country_code": "CN",
        "sup_city_en": "qiqihaer",
        "sup_city_zh": "齐齐哈尔",
        "latitude": "46.39233",
        "longitude": "123.41953"
      },
      {
        "code": "CN101050211",
        "city_en": "longsha",
        "city_zh": "龙沙",
        "country_code": "CN",
        "sup_city_en": "qiqihaer",
        "sup_city_zh": "齐齐哈尔",
        "latitude": "47.341736",
        "longitude": "123.957338"
      },
      {
        "code": "CN101050212",
        "city_en": "jianhua",
        "city_zh": "建华",
        "country_code": "CN",
        "sup_city_en": "qiqihaer",
        "sup_city_zh": "齐齐哈尔",
        "latitude": "47.354494",
        "longitude": "123.955888"
      },
      {
        "code": "CN101050213",
        "city_en": "tiefeng",
        "city_zh": "铁锋",
        "country_code": "CN",
        "sup_city_en": "qiqihaer",
        "sup_city_zh": "齐齐哈尔",
        "latitude": "47.339499",
        "longitude": "123.973555"
      },
      {
        "code": "CN101050214",
        "city_en": "angangxi",
        "city_zh": "昂昂溪",
        "country_code": "CN",
        "sup_city_en": "qiqihaer",
        "sup_city_zh": "齐齐哈尔",
        "latitude": "47.156867",
        "longitude": "123.813181"
      },
      {
        "code": "CN101050215",
        "city_en": "fulaerji",
        "city_zh": "富拉尔基",
        "country_code": "CN",
        "sup_city_en": "qiqihaer",
        "sup_city_zh": "齐齐哈尔",
        "latitude": "47.20697",
        "longitude": "123.638873"
      },
      {
        "code": "CN101050216",
        "city_en": "nianzishan",
        "city_zh": "碾子山",
        "country_code": "CN",
        "sup_city_en": "qiqihaer",
        "sup_city_zh": "齐齐哈尔",
        "latitude": "47.51401",
        "longitude": "122.887972"
      },
      {
        "code": "CN101050217",
        "city_en": "meilisi",
        "city_zh": "梅里斯",
        "country_code": "CN",
        "sup_city_en": "qiqihaer",
        "sup_city_zh": "齐齐哈尔",
        "latitude": "47.311113",
        "longitude": "123.754599"
      },
      {
        "code": "CN101050301",
        "city_en": "mudanjiang",
        "city_zh": "牡丹江",
        "country_code": "CN",
        "sup_city_en": "mudanjiang",
        "sup_city_zh": "牡丹江",
        "latitude": "44.582962",
        "longitude": "129.618602"
      },
      {
        "code": "CN101050302",
        "city_en": "hailin",
        "city_zh": "海林",
        "country_code": "CN",
        "sup_city_en": "mudanjiang",
        "sup_city_zh": "牡丹江",
        "latitude": "44.574149",
        "longitude": "129.387902"
      },
      {
        "code": "CN101050303",
        "city_en": "muling",
        "city_zh": "穆棱",
        "country_code": "CN",
        "sup_city_en": "mudanjiang",
        "sup_city_zh": "牡丹江",
        "latitude": "44.91967",
        "longitude": "130.527085"
      },
      {
        "code": "CN101050304",
        "city_en": "linkou",
        "city_zh": "林口",
        "country_code": "CN",
        "sup_city_en": "mudanjiang",
        "sup_city_zh": "牡丹江",
        "latitude": "45.286645",
        "longitude": "130.268402"
      },
      {
        "code": "CN101050305",
        "city_en": "suifenhe",
        "city_zh": "绥芬河",
        "country_code": "CN",
        "sup_city_en": "mudanjiang",
        "sup_city_zh": "牡丹江",
        "latitude": "44.396864",
        "longitude": "131.164856"
      },
      {
        "code": "CN101050306",
        "city_en": "ningan",
        "city_zh": "宁安",
        "country_code": "CN",
        "sup_city_en": "mudanjiang",
        "sup_city_zh": "牡丹江",
        "latitude": "44.346836",
        "longitude": "129.470019"
      },
      {
        "code": "CN101050307",
        "city_en": "dongning",
        "city_zh": "东宁",
        "country_code": "CN",
        "sup_city_en": "mudanjiang",
        "sup_city_zh": "牡丹江",
        "latitude": "44.063578",
        "longitude": "131.125296"
      },
      {
        "code": "CN101050308",
        "city_en": "dongan",
        "city_zh": "东安",
        "country_code": "CN",
        "sup_city_en": "mudanjiang",
        "sup_city_zh": "牡丹江",
        "latitude": "44.582399",
        "longitude": "129.623292"
      },
      {
        "code": "CN101050309",
        "city_en": "yangming",
        "city_zh": "阳明",
        "country_code": "CN",
        "sup_city_en": "mudanjiang",
        "sup_city_zh": "牡丹江",
        "latitude": "44.596328",
        "longitude": "129.634645"
      },
      {
        "code": "CN101050310",
        "city_en": "aimin",
        "city_zh": "爱民",
        "country_code": "CN",
        "sup_city_en": "mudanjiang",
        "sup_city_zh": "牡丹江",
        "latitude": "44.595443",
        "longitude": "129.601232"
      },
      {
        "code": "CN101050311",
        "city_en": "xian",
        "city_zh": "西安",
        "country_code": "CN",
        "sup_city_en": "mudanjiang",
        "sup_city_zh": "牡丹江",
        "latitude": "44.581032",
        "longitude": "129.61311"
      },
      {
        "code": "CN101050401",
        "city_en": "jiamusi",
        "city_zh": "佳木斯",
        "country_code": "CN",
        "sup_city_en": "jiamusi",
        "sup_city_zh": "佳木斯",
        "latitude": "46.809606",
        "longitude": "130.361634"
      },
      {
        "code": "CN101050402",
        "city_en": "tangyuan",
        "city_zh": "汤原",
        "country_code": "CN",
        "sup_city_en": "jiamusi",
        "sup_city_zh": "佳木斯",
        "latitude": "46.730048",
        "longitude": "129.904463"
      },
      {
        "code": "CN101050403",
        "city_en": "fuyuan",
        "city_zh": "抚远",
        "country_code": "CN",
        "sup_city_en": "jiamusi",
        "sup_city_zh": "佳木斯",
        "latitude": "48.364707",
        "longitude": "134.294501"
      },
      {
        "code": "CN101050404",
        "city_en": "huachuan",
        "city_zh": "桦川",
        "country_code": "CN",
        "sup_city_en": "jiamusi",
        "sup_city_zh": "佳木斯",
        "latitude": "47.023039",
        "longitude": "130.723713"
      },
      {
        "code": "CN101050405",
        "city_en": "huanan",
        "city_zh": "桦南",
        "country_code": "CN",
        "sup_city_en": "jiamusi",
        "sup_city_zh": "佳木斯",
        "latitude": "46.240118",
        "longitude": "130.570112"
      },
      {
        "code": "CN101050406",
        "city_en": "tongjiang",
        "city_zh": "同江",
        "country_code": "CN",
        "sup_city_en": "jiamusi",
        "sup_city_zh": "佳木斯",
        "latitude": "47.651131",
        "longitude": "132.510119"
      },
      {
        "code": "CN101050407",
        "city_en": "fujin",
        "city_zh": "富锦",
        "country_code": "CN",
        "sup_city_en": "jiamusi",
        "sup_city_zh": "佳木斯",
        "latitude": "47.250747",
        "longitude": "132.037951"
      },
      {
        "code": "CN101050408",
        "city_en": "xiangyang",
        "city_zh": "向阳",
        "country_code": "CN",
        "sup_city_en": "jiamusi",
        "sup_city_zh": "佳木斯",
        "latitude": "46.809645",
        "longitude": "130.361786"
      },
      {
        "code": "CN101050409",
        "city_en": "qianjin",
        "city_zh": "前进",
        "country_code": "CN",
        "sup_city_en": "jiamusi",
        "sup_city_zh": "佳木斯",
        "latitude": "46.812345",
        "longitude": "130.377684"
      },
      {
        "code": "CN101050410",
        "city_en": "dongfeng",
        "city_zh": "东风",
        "country_code": "CN",
        "sup_city_en": "jiamusi",
        "sup_city_zh": "佳木斯",
        "latitude": "46.822476",
        "longitude": "130.403297"
      },
      {
        "code": "CN101050411",
        "city_en": "jiaoqu",
        "city_zh": "郊区",
        "country_code": "CN",
        "sup_city_en": "jiamusi",
        "sup_city_zh": "佳木斯",
        "latitude": "46.80712",
        "longitude": "130.351588"
      },
      {
        "code": "CN101050501",
        "city_en": "suihua",
        "city_zh": "绥化",
        "country_code": "CN",
        "sup_city_en": "suihua",
        "sup_city_zh": "绥化",
        "latitude": "46.637393",
        "longitude": "126.99293"
      },
      {
        "code": "CN101050502",
        "city_en": "zhaodong",
        "city_zh": "肇东",
        "country_code": "CN",
        "sup_city_en": "suihua",
        "sup_city_zh": "绥化",
        "latitude": "46.069471",
        "longitude": "125.991402"
      },
      {
        "code": "CN101050503",
        "city_en": "anda",
        "city_zh": "安达",
        "country_code": "CN",
        "sup_city_en": "suihua",
        "sup_city_zh": "绥化",
        "latitude": "46.410614",
        "longitude": "125.329926"
      },
      {
        "code": "CN101050504",
        "city_en": "hailun",
        "city_zh": "海伦",
        "country_code": "CN",
        "sup_city_en": "suihua",
        "sup_city_zh": "绥化",
        "latitude": "47.460428",
        "longitude": "126.969383"
      },
      {
        "code": "CN101050505",
        "city_en": "mingshui",
        "city_zh": "明水",
        "country_code": "CN",
        "sup_city_en": "suihua",
        "sup_city_zh": "绥化",
        "latitude": "47.183527",
        "longitude": "125.907544"
      },
      {
        "code": "CN101050506",
        "city_en": "wangkui",
        "city_zh": "望奎",
        "country_code": "CN",
        "sup_city_en": "suihua",
        "sup_city_zh": "绥化",
        "latitude": "46.83352",
        "longitude": "126.484191"
      },
      {
        "code": "CN101050507",
        "city_en": "lanxi",
        "city_zh": "兰西",
        "country_code": "CN",
        "sup_city_en": "suihua",
        "sup_city_zh": "绥化",
        "latitude": "46.259037",
        "longitude": "126.289315"
      },
      {
        "code": "CN101050508",
        "city_en": "qinggang",
        "city_zh": "青冈",
        "country_code": "CN",
        "sup_city_en": "suihua",
        "sup_city_zh": "绥化",
        "latitude": "46.686596",
        "longitude": "126.112268"
      },
      {
        "code": "CN101050509",
        "city_en": "qingan",
        "city_zh": "庆安",
        "country_code": "CN",
        "sup_city_en": "suihua",
        "sup_city_zh": "绥化",
        "latitude": "46.879203",
        "longitude": "127.510024"
      },
      {
        "code": "CN101050510",
        "city_en": "suiling",
        "city_zh": "绥棱",
        "country_code": "CN",
        "sup_city_en": "suihua",
        "sup_city_zh": "绥化",
        "latitude": "47.247195",
        "longitude": "127.111121"
      },
      {
        "code": "CN101050511",
        "city_en": "beilin",
        "city_zh": "北林",
        "country_code": "CN",
        "sup_city_en": "suihua",
        "sup_city_zh": "绥化",
        "latitude": "46.634912",
        "longitude": "126.990665"
      },
      {
        "code": "CN101050601",
        "city_en": "heihe",
        "city_zh": "黑河",
        "country_code": "CN",
        "sup_city_en": "heihe",
        "sup_city_zh": "黑河",
        "latitude": "50.249585",
        "longitude": "127.499023"
      },
      {
        "code": "CN101050602",
        "city_en": "nenjiang",
        "city_zh": "嫩江",
        "country_code": "CN",
        "sup_city_en": "heihe",
        "sup_city_zh": "黑河",
        "latitude": "49.177461",
        "longitude": "125.229904"
      },
      {
        "code": "CN101050603",
        "city_en": "sunwu",
        "city_zh": "孙吴",
        "country_code": "CN",
        "sup_city_en": "heihe",
        "sup_city_zh": "黑河",
        "latitude": "49.423941",
        "longitude": "127.327315"
      },
      {
        "code": "CN101050604",
        "city_en": "xunke",
        "city_zh": "逊克",
        "country_code": "CN",
        "sup_city_en": "heihe",
        "sup_city_zh": "黑河",
        "latitude": "49.582974",
        "longitude": "128.476152"
      },
      {
        "code": "CN101050605",
        "city_en": "wudalianchi",
        "city_zh": "五大连池",
        "country_code": "CN",
        "sup_city_en": "heihe",
        "sup_city_zh": "黑河",
        "latitude": "48.512688",
        "longitude": "126.197694"
      },
      {
        "code": "CN101050606",
        "city_en": "beian",
        "city_zh": "北安",
        "country_code": "CN",
        "sup_city_en": "heihe",
        "sup_city_zh": "黑河",
        "latitude": "48.245437",
        "longitude": "126.508737"
      },
      {
        "code": "CN101050607",
        "city_en": "aihui",
        "city_zh": "爱辉",
        "country_code": "CN",
        "sup_city_en": "heihe",
        "sup_city_zh": "黑河",
        "latitude": "50.249027",
        "longitude": "127.497639"
      },
      {
        "code": "CN101050701",
        "city_en": "daxinganling",
        "city_zh": "大兴安岭",
        "country_code": "CN",
        "sup_city_en": "daxinganling",
        "sup_city_zh": "大兴安岭",
        "latitude": "52.335262",
        "longitude": "124.711526"
      },
      {
        "code": "CN101050702",
        "city_en": "tahe",
        "city_zh": "塔河",
        "country_code": "CN",
        "sup_city_en": "daxinganling",
        "sup_city_zh": "大兴安岭",
        "latitude": "52.335229",
        "longitude": "124.710516"
      },
      {
        "code": "CN101050703",
        "city_en": "mohe",
        "city_zh": "漠河",
        "country_code": "CN",
        "sup_city_en": "daxinganling",
        "sup_city_zh": "大兴安岭",
        "latitude": "52.972074",
        "longitude": "122.536256"
      },
      {
        "code": "CN101050704",
        "city_en": "huma",
        "city_zh": "呼玛",
        "country_code": "CN",
        "sup_city_en": "daxinganling",
        "sup_city_zh": "大兴安岭",
        "latitude": "51.726998",
        "longitude": "126.662105"
      },
      {
        "code": "CN101050801",
        "city_en": "yichun",
        "city_zh": "伊春",
        "country_code": "CN",
        "sup_city_en": "yichun",
        "sup_city_zh": "伊春",
        "latitude": "47.726851",
        "longitude": "128.899284"
      },
      {
        "code": "CN101050802",
        "city_en": "wuyiling",
        "city_zh": "乌伊岭",
        "country_code": "CN",
        "sup_city_en": "yichun",
        "sup_city_zh": "伊春",
        "latitude": "48.59112",
        "longitude": "129.437847"
      },
      {
        "code": "CN101050803",
        "city_en": "wuying",
        "city_zh": "五营",
        "country_code": "CN",
        "sup_city_en": "yichun",
        "sup_city_zh": "伊春",
        "latitude": "48.108204",
        "longitude": "129.245028"
      },
      {
        "code": "CN101050804",
        "city_en": "tieli",
        "city_zh": "铁力",
        "country_code": "CN",
        "sup_city_en": "yichun",
        "sup_city_zh": "伊春",
        "latitude": "46.985772",
        "longitude": "128.030561"
      },
      {
        "code": "CN101050805",
        "city_en": "jiayin",
        "city_zh": "嘉荫",
        "country_code": "CN",
        "sup_city_en": "yichun",
        "sup_city_zh": "伊春",
        "latitude": "48.891378",
        "longitude": "130.397684"
      },
      {
        "code": "CN101050806",
        "city_en": "nancha",
        "city_zh": "南岔",
        "country_code": "CN",
        "sup_city_en": "yichun",
        "sup_city_zh": "伊春",
        "latitude": "47.137314",
        "longitude": "129.28246"
      },
      {
        "code": "CN101050807",
        "city_en": "youhao",
        "city_zh": "友好",
        "country_code": "CN",
        "sup_city_en": "yichun",
        "sup_city_zh": "伊春",
        "latitude": "47.854303",
        "longitude": "128.838961"
      },
      {
        "code": "CN101050808",
        "city_en": "xilin",
        "city_zh": "西林",
        "country_code": "CN",
        "sup_city_en": "yichun",
        "sup_city_zh": "伊春",
        "latitude": "47.479437",
        "longitude": "129.311441"
      },
      {
        "code": "CN101050809",
        "city_en": "cuiluan",
        "city_zh": "翠峦",
        "country_code": "CN",
        "sup_city_en": "yichun",
        "sup_city_zh": "伊春",
        "latitude": "47.726228",
        "longitude": "128.671746"
      },
      {
        "code": "CN101050810",
        "city_en": "xinqing",
        "city_zh": "新青",
        "country_code": "CN",
        "sup_city_en": "yichun",
        "sup_city_zh": "伊春",
        "latitude": "48.288292",
        "longitude": "129.52995"
      },
      {
        "code": "CN101050811",
        "city_en": "meixi",
        "city_zh": "美溪",
        "country_code": "CN",
        "sup_city_en": "yichun",
        "sup_city_zh": "伊春",
        "latitude": "47.636102",
        "longitude": "129.133411"
      },
      {
        "code": "CN101050812",
        "city_en": "jinshantun",
        "city_zh": "金山屯",
        "country_code": "CN",
        "sup_city_en": "yichun",
        "sup_city_zh": "伊春",
        "latitude": "47.41295",
        "longitude": "129.435944"
      },
      {
        "code": "CN101050813",
        "city_en": "wumahe",
        "city_zh": "乌马河",
        "country_code": "CN",
        "sup_city_en": "yichun",
        "sup_city_zh": "伊春",
        "latitude": "47.726961",
        "longitude": "128.802941"
      },
      {
        "code": "CN101050814",
        "city_en": "tangwanghe",
        "city_zh": "汤旺河",
        "country_code": "CN",
        "sup_city_en": "yichun",
        "sup_city_zh": "伊春",
        "latitude": "48.453651",
        "longitude": "129.57224"
      },
      {
        "code": "CN101050815",
        "city_en": "dailing",
        "city_zh": "带岭",
        "country_code": "CN",
        "sup_city_en": "yichun",
        "sup_city_zh": "伊春",
        "latitude": "47.027532",
        "longitude": "129.021151"
      },
      {
        "code": "CN101050816",
        "city_en": "hongxing",
        "city_zh": "红星",
        "country_code": "CN",
        "sup_city_en": "yichun",
        "sup_city_zh": "伊春",
        "latitude": "48.238368",
        "longitude": "129.388796"
      },
      {
        "code": "CN101050817",
        "city_en": "shangganling",
        "city_zh": "上甘岭",
        "country_code": "CN",
        "sup_city_en": "yichun",
        "sup_city_zh": "伊春",
        "latitude": "47.974859",
        "longitude": "129.02508"
      },
      {
        "code": "CN101050901",
        "city_en": "daqing",
        "city_zh": "大庆",
        "country_code": "CN",
        "sup_city_en": "daqing",
        "sup_city_zh": "大庆",
        "latitude": "46.590734",
        "longitude": "125.11272"
      },
      {
        "code": "CN101050902",
        "city_en": "lindian",
        "city_zh": "林甸",
        "country_code": "CN",
        "sup_city_en": "daqing",
        "sup_city_zh": "大庆",
        "latitude": "47.186411",
        "longitude": "124.877742"
      },
      {
        "code": "CN101050903",
        "city_en": "zhaozhou",
        "city_zh": "肇州",
        "country_code": "CN",
        "sup_city_en": "daqing",
        "sup_city_zh": "大庆",
        "latitude": "45.708685",
        "longitude": "125.273254"
      },
      {
        "code": "CN101050904",
        "city_en": "zhaoyuan",
        "city_zh": "肇源",
        "country_code": "CN",
        "sup_city_en": "daqing",
        "sup_city_zh": "大庆",
        "latitude": "45.518832",
        "longitude": "125.081974"
      },
      {
        "code": "CN101050905",
        "city_en": "duerbote",
        "city_zh": "杜尔伯特",
        "country_code": "CN",
        "sup_city_en": "daqing",
        "sup_city_zh": "大庆",
        "latitude": "46.865973",
        "longitude": "124.446259"
      },
      {
        "code": "CN101050906",
        "city_en": "saertu",
        "city_zh": "萨尔图",
        "country_code": "CN",
        "sup_city_en": "daqing",
        "sup_city_zh": "大庆",
        "latitude": "46.596356",
        "longitude": "125.114643"
      },
      {
        "code": "CN101050907",
        "city_en": "longfeng",
        "city_zh": "龙凤",
        "country_code": "CN",
        "sup_city_en": "daqing",
        "sup_city_zh": "大庆",
        "latitude": "46.573948",
        "longitude": "125.145794"
      },
      {
        "code": "CN101050908",
        "city_en": "ranghulu",
        "city_zh": "让胡路",
        "country_code": "CN",
        "sup_city_en": "daqing",
        "sup_city_zh": "大庆",
        "latitude": "46.653254",
        "longitude": "124.868341"
      },
      {
        "code": "CN101050909",
        "city_en": "honggang",
        "city_zh": "红岗",
        "country_code": "CN",
        "sup_city_en": "daqing",
        "sup_city_zh": "大庆",
        "latitude": "46.403049",
        "longitude": "124.889528"
      },
      {
        "code": "CN101050910",
        "city_en": "datong",
        "city_zh": "大同",
        "country_code": "CN",
        "sup_city_en": "daqing",
        "sup_city_zh": "大庆",
        "latitude": "46.034304",
        "longitude": "124.818509"
      },
      {
        "code": "CN101051001",
        "city_en": "xinxing",
        "city_zh": "新兴",
        "country_code": "CN",
        "sup_city_en": "qitaihe",
        "sup_city_zh": "七台河",
        "latitude": "45.794258",
        "longitude": "130.889482"
      },
      {
        "code": "CN101051002",
        "city_en": "qitaihe",
        "city_zh": "七台河",
        "country_code": "CN",
        "sup_city_en": "qitaihe",
        "sup_city_zh": "七台河",
        "latitude": "45.771266",
        "longitude": "131.015584"
      },
      {
        "code": "CN101051003",
        "city_en": "boli",
        "city_zh": "勃利",
        "country_code": "CN",
        "sup_city_en": "qitaihe",
        "sup_city_zh": "七台河",
        "latitude": "45.751573",
        "longitude": "130.575025"
      },
      {
        "code": "CN101051004",
        "city_en": "taoshan",
        "city_zh": "桃山",
        "country_code": "CN",
        "sup_city_en": "qitaihe",
        "sup_city_zh": "七台河",
        "latitude": "45.771217",
        "longitude": "131.015848"
      },
      {
        "code": "CN101051005",
        "city_en": "qiezihe",
        "city_zh": "茄子河",
        "country_code": "CN",
        "sup_city_en": "qitaihe",
        "sup_city_zh": "七台河",
        "latitude": "45.776587",
        "longitude": "131.071561"
      },
      {
        "code": "CN101051101",
        "city_en": "jixi",
        "city_zh": "鸡西",
        "country_code": "CN",
        "sup_city_en": "jixi",
        "sup_city_zh": "鸡西",
        "latitude": "45.300046",
        "longitude": "130.975966"
      },
      {
        "code": "CN101051102",
        "city_en": "hulin",
        "city_zh": "虎林",
        "country_code": "CN",
        "sup_city_en": "jixi",
        "sup_city_zh": "鸡西",
        "latitude": "45.767985",
        "longitude": "132.973881"
      },
      {
        "code": "CN101051103",
        "city_en": "mishan",
        "city_zh": "密山",
        "country_code": "CN",
        "sup_city_en": "jixi",
        "sup_city_zh": "鸡西",
        "latitude": "45.54725",
        "longitude": "131.874137"
      },
      {
        "code": "CN101051104",
        "city_en": "jidong",
        "city_zh": "鸡东",
        "country_code": "CN",
        "sup_city_en": "jixi",
        "sup_city_zh": "鸡西",
        "latitude": "45.250892",
        "longitude": "131.148907"
      },
      {
        "code": "CN101051105",
        "city_en": "jiguan",
        "city_zh": "鸡冠",
        "country_code": "CN",
        "sup_city_en": "jixi",
        "sup_city_zh": "鸡西",
        "latitude": "45.30034",
        "longitude": "130.974374"
      },
      {
        "code": "CN101051106",
        "city_en": "hengshan",
        "city_zh": "恒山",
        "country_code": "CN",
        "sup_city_en": "jixi",
        "sup_city_zh": "鸡西",
        "latitude": "45.213242",
        "longitude": "130.910636"
      },
      {
        "code": "CN101051107",
        "city_en": "didao",
        "city_zh": "滴道",
        "country_code": "CN",
        "sup_city_en": "jixi",
        "sup_city_zh": "鸡西",
        "latitude": "45.348812",
        "longitude": "130.846823"
      },
      {
        "code": "CN101051108",
        "city_en": "lishu",
        "city_zh": "梨树",
        "country_code": "CN",
        "sup_city_en": "jixi",
        "sup_city_zh": "鸡西",
        "latitude": "45.092195",
        "longitude": "130.697781"
      },
      {
        "code": "CN101051109",
        "city_en": "chengzihe",
        "city_zh": "城子河",
        "country_code": "CN",
        "sup_city_en": "jixi",
        "sup_city_zh": "鸡西",
        "latitude": "45.338248",
        "longitude": "131.010501"
      },
      {
        "code": "CN101051110",
        "city_en": "mashan",
        "city_zh": "麻山",
        "country_code": "CN",
        "sup_city_en": "jixi",
        "sup_city_zh": "鸡西",
        "latitude": "45.209607",
        "longitude": "130.481126"
      },
      {
        "code": "CN101051201",
        "city_en": "hegang",
        "city_zh": "鹤岗",
        "country_code": "CN",
        "sup_city_en": "hegang",
        "sup_city_zh": "鹤岗",
        "latitude": "47.332085",
        "longitude": "130.277487"
      },
      {
        "code": "CN101051202",
        "city_en": "suibin",
        "city_zh": "绥滨",
        "country_code": "CN",
        "sup_city_en": "hegang",
        "sup_city_zh": "鹤岗",
        "latitude": "47.289892",
        "longitude": "131.860526"
      },
      {
        "code": "CN101051203",
        "city_en": "luobei",
        "city_zh": "萝北",
        "country_code": "CN",
        "sup_city_en": "hegang",
        "sup_city_zh": "鹤岗",
        "latitude": "47.577577",
        "longitude": "130.829087"
      },
      {
        "code": "CN101051204",
        "city_en": "xiangyang",
        "city_zh": "向阳",
        "country_code": "CN",
        "sup_city_en": "hegang",
        "sup_city_zh": "鹤岗",
        "latitude": "47.345372",
        "longitude": "130.292478"
      },
      {
        "code": "CN101051205",
        "city_en": "gongnong",
        "city_zh": "工农",
        "country_code": "CN",
        "sup_city_en": "hegang",
        "sup_city_zh": "鹤岗",
        "latitude": "47.331678",
        "longitude": "130.276652"
      },
      {
        "code": "CN101051206",
        "city_en": "nanshan",
        "city_zh": "南山",
        "country_code": "CN",
        "sup_city_en": "hegang",
        "sup_city_zh": "鹤岗",
        "latitude": "47.31324",
        "longitude": "130.275533"
      },
      {
        "code": "CN101051207",
        "city_en": "xingan",
        "city_zh": "兴安",
        "country_code": "CN",
        "sup_city_en": "hegang",
        "sup_city_zh": "鹤岗",
        "latitude": "47.252911",
        "longitude": "130.236169"
      },
      {
        "code": "CN101051208",
        "city_en": "dongshan",
        "city_zh": "东山",
        "country_code": "CN",
        "sup_city_en": "hegang",
        "sup_city_zh": "鹤岗",
        "latitude": "47.337385",
        "longitude": "130.31714"
      },
      {
        "code": "CN101051209",
        "city_en": "xingshan",
        "city_zh": "兴山",
        "country_code": "CN",
        "sup_city_en": "hegang",
        "sup_city_zh": "鹤岗",
        "latitude": "47.35997",
        "longitude": "130.30534"
      },
      {
        "code": "CN101051301",
        "city_en": "shuangyashan",
        "city_zh": "双鸭山",
        "country_code": "CN",
        "sup_city_en": "shuangyashan",
        "sup_city_zh": "双鸭山",
        "latitude": "46.643442",
        "longitude": "131.157304"
      },
      {
        "code": "CN101051302",
        "city_en": "jixian",
        "city_zh": "集贤",
        "country_code": "CN",
        "sup_city_en": "shuangyashan",
        "sup_city_zh": "双鸭山",
        "latitude": "46.72898",
        "longitude": "131.13933"
      },
      {
        "code": "CN101051303",
        "city_en": "baoqing",
        "city_zh": "宝清",
        "country_code": "CN",
        "sup_city_en": "shuangyashan",
        "sup_city_zh": "双鸭山",
        "latitude": "46.328781",
        "longitude": "132.206415"
      },
      {
        "code": "CN101051304",
        "city_en": "raohe",
        "city_zh": "饶河",
        "country_code": "CN",
        "sup_city_en": "shuangyashan",
        "sup_city_zh": "双鸭山",
        "latitude": "46.801288",
        "longitude": "134.021162"
      },
      {
        "code": "CN101051305",
        "city_en": "youyi",
        "city_zh": "友谊",
        "country_code": "CN",
        "sup_city_en": "shuangyashan",
        "sup_city_zh": "双鸭山",
        "latitude": "46.775159",
        "longitude": "131.810622"
      },
      {
        "code": "CN101051306",
        "city_en": "jianshan",
        "city_zh": "尖山",
        "country_code": "CN",
        "sup_city_en": "shuangyashan",
        "sup_city_zh": "双鸭山",
        "latitude": "46.642961",
        "longitude": "131.15896"
      },
      {
        "code": "CN101051307",
        "city_en": "lingdong",
        "city_zh": "岭东",
        "country_code": "CN",
        "sup_city_en": "shuangyashan",
        "sup_city_zh": "双鸭山",
        "latitude": "46.591076",
        "longitude": "131.163675"
      },
      {
        "code": "CN101051308",
        "city_en": "sifangtai",
        "city_zh": "四方台",
        "country_code": "CN",
        "sup_city_en": "shuangyashan",
        "sup_city_zh": "双鸭山",
        "latitude": "46.594347",
        "longitude": "131.333181"
      },
      {
        "code": "CN101051309",
        "city_en": "baoshan",
        "city_zh": "宝山",
        "country_code": "CN",
        "sup_city_en": "shuangyashan",
        "sup_city_zh": "双鸭山",
        "latitude": "46.573366",
        "longitude": "131.404294"
      }
    ]
  },
  {
    "pro_zh": "吉林",
    "pro_en": "jilin",
    "cityList": [
      {
        "code": "CN101060101",
        "city_en": "changchun",
        "city_zh": "长春",
        "country_code": "CN",
        "sup_city_en": "changchun",
        "sup_city_zh": "长春",
        "latitude": "43.886841",
        "longitude": "125.3245"
      },
      {
        "code": "CN101060102",
        "city_en": "nongan",
        "city_zh": "农安",
        "country_code": "CN",
        "sup_city_en": "changchun",
        "sup_city_zh": "长春",
        "latitude": "44.431258",
        "longitude": "125.175287"
      },
      {
        "code": "CN101060103",
        "city_en": "dehui",
        "city_zh": "德惠",
        "country_code": "CN",
        "sup_city_en": "changchun",
        "sup_city_zh": "长春",
        "latitude": "44.533909",
        "longitude": "125.703327"
      },
      {
        "code": "CN101060104",
        "city_en": "jiutai",
        "city_zh": "九台",
        "country_code": "CN",
        "sup_city_en": "changchun",
        "sup_city_zh": "长春",
        "latitude": "44.157155",
        "longitude": "125.844682"
      },
      {
        "code": "CN101060105",
        "city_en": "yushu",
        "city_zh": "榆树",
        "country_code": "CN",
        "sup_city_en": "changchun",
        "sup_city_zh": "长春",
        "latitude": "44.827642",
        "longitude": "126.550107"
      },
      {
        "code": "CN101060106",
        "city_en": "shuangyang",
        "city_zh": "双阳",
        "country_code": "CN",
        "sup_city_en": "changchun",
        "sup_city_zh": "长春",
        "latitude": "43.525168",
        "longitude": "125.659018"
      },
      {
        "code": "CN101060107",
        "city_en": "erdao",
        "city_zh": "二道",
        "country_code": "CN",
        "sup_city_en": "changchun",
        "sup_city_zh": "长春",
        "latitude": "43.870824",
        "longitude": "125.384727"
      },
      {
        "code": "CN101060108",
        "city_en": "nanguan",
        "city_zh": "南关",
        "country_code": "CN",
        "sup_city_en": "changchun",
        "sup_city_zh": "长春",
        "latitude": "43.890235",
        "longitude": "125.337237"
      },
      {
        "code": "CN101060109",
        "city_en": "kuancheng",
        "city_zh": "宽城",
        "country_code": "CN",
        "sup_city_en": "changchun",
        "sup_city_zh": "长春",
        "latitude": "43.903823",
        "longitude": "125.342828"
      },
      {
        "code": "CN101060110",
        "city_en": "chaoyang",
        "city_zh": "朝阳",
        "country_code": "CN",
        "sup_city_en": "changchun",
        "sup_city_zh": "长春",
        "latitude": "43.86491",
        "longitude": "125.318042"
      },
      {
        "code": "CN101060111",
        "city_en": "lvyuan",
        "city_zh": "绿园",
        "country_code": "CN",
        "sup_city_en": "changchun",
        "sup_city_zh": "长春",
        "latitude": "43.892177",
        "longitude": "125.272467"
      },
      {
        "code": "CN101060201",
        "city_en": "jilin",
        "city_zh": "吉林",
        "country_code": "CN",
        "sup_city_en": "jilin",
        "sup_city_zh": "吉林",
        "latitude": "43.843577",
        "longitude": "126.55302"
      },
      {
        "code": "CN101060202",
        "city_en": "shulan",
        "city_zh": "舒兰",
        "country_code": "CN",
        "sup_city_en": "jilin",
        "sup_city_zh": "吉林",
        "latitude": "44.410906",
        "longitude": "126.947813"
      },
      {
        "code": "CN101060203",
        "city_en": "yongji",
        "city_zh": "永吉",
        "country_code": "CN",
        "sup_city_en": "jilin",
        "sup_city_zh": "吉林",
        "latitude": "43.667416",
        "longitude": "126.501622"
      },
      {
        "code": "CN101060204",
        "city_en": "jiaohe",
        "city_zh": "蛟河",
        "country_code": "CN",
        "sup_city_en": "jilin",
        "sup_city_zh": "吉林",
        "latitude": "43.720579",
        "longitude": "127.342739"
      },
      {
        "code": "CN101060205",
        "city_en": "panshi",
        "city_zh": "磐石",
        "country_code": "CN",
        "sup_city_en": "jilin",
        "sup_city_zh": "吉林",
        "latitude": "42.942476",
        "longitude": "126.059929"
      },
      {
        "code": "CN101060206",
        "city_en": "huadian",
        "city_zh": "桦甸",
        "country_code": "CN",
        "sup_city_en": "jilin",
        "sup_city_zh": "吉林",
        "latitude": "42.972093",
        "longitude": "126.745445"
      },
      {
        "code": "CN101060207",
        "city_en": "changyi",
        "city_zh": "昌邑",
        "country_code": "CN",
        "sup_city_en": "jilin",
        "sup_city_zh": "吉林",
        "latitude": "43.851118",
        "longitude": "126.570766"
      },
      {
        "code": "CN101060208",
        "city_en": "longtan",
        "city_zh": "龙潭",
        "country_code": "CN",
        "sup_city_en": "jilin",
        "sup_city_zh": "吉林",
        "latitude": "43.909755",
        "longitude": "126.561429"
      },
      {
        "code": "CN101060209",
        "city_en": "chuanying",
        "city_zh": "船营",
        "country_code": "CN",
        "sup_city_en": "jilin",
        "sup_city_zh": "吉林",
        "latitude": "43.843804",
        "longitude": "126.55239"
      },
      {
        "code": "CN101060210",
        "city_en": "fengman",
        "city_zh": "丰满",
        "country_code": "CN",
        "sup_city_en": "jilin",
        "sup_city_zh": "吉林",
        "latitude": "43.816594",
        "longitude": "126.560759"
      },
      {
        "code": "CN101060301",
        "city_en": "yanji",
        "city_zh": "延吉",
        "country_code": "CN",
        "sup_city_en": "yanbian",
        "sup_city_zh": "延边",
        "latitude": "42.906964",
        "longitude": "129.51579"
      },
      {
        "code": "CN101060302",
        "city_en": "dunhua",
        "city_zh": "敦化",
        "country_code": "CN",
        "sup_city_en": "yanbian",
        "sup_city_zh": "延边",
        "latitude": "43.366921",
        "longitude": "128.22986"
      },
      {
        "code": "CN101060303",
        "city_en": "antu",
        "city_zh": "安图",
        "country_code": "CN",
        "sup_city_en": "yanbian",
        "sup_city_zh": "延边",
        "latitude": "43.110994",
        "longitude": "128.901865"
      },
      {
        "code": "CN101060304",
        "city_en": "wangqing",
        "city_zh": "汪清",
        "country_code": "CN",
        "sup_city_en": "yanbian",
        "sup_city_zh": "延边",
        "latitude": "43.315426",
        "longitude": "129.766161"
      },
      {
        "code": "CN101060305",
        "city_en": "helong",
        "city_zh": "和龙",
        "country_code": "CN",
        "sup_city_en": "yanbian",
        "sup_city_zh": "延边",
        "latitude": "42.547004",
        "longitude": "129.008748"
      },
      {
        "code": "CN101060306",
        "city_en": "yanbian",
        "city_zh": "延边",
        "country_code": "CN",
        "sup_city_en": "yanbian",
        "sup_city_zh": "延边",
        "latitude": "42.904823",
        "longitude": "129.513228"
      },
      {
        "code": "CN101060307",
        "city_en": "longjing",
        "city_zh": "龙井",
        "country_code": "CN",
        "sup_city_en": "yanbian",
        "sup_city_zh": "延边",
        "latitude": "42.771029",
        "longitude": "129.425747"
      },
      {
        "code": "CN101060308",
        "city_en": "hunchun",
        "city_zh": "珲春",
        "country_code": "CN",
        "sup_city_en": "yanbian",
        "sup_city_zh": "延边",
        "latitude": "42.871057",
        "longitude": "130.365787"
      },
      {
        "code": "CN101060309",
        "city_en": "tumen",
        "city_zh": "图们",
        "country_code": "CN",
        "sup_city_en": "yanbian",
        "sup_city_zh": "延边",
        "latitude": "42.966621",
        "longitude": "129.846701"
      },
      {
        "code": "CN101060401",
        "city_en": "siping",
        "city_zh": "四平",
        "country_code": "CN",
        "sup_city_en": "siping",
        "sup_city_zh": "四平",
        "latitude": "43.170344",
        "longitude": "124.370785"
      },
      {
        "code": "CN101060402",
        "city_en": "shuangliao",
        "city_zh": "双辽",
        "country_code": "CN",
        "sup_city_en": "siping",
        "sup_city_zh": "四平",
        "latitude": "43.518275",
        "longitude": "123.505283"
      },
      {
        "code": "CN101060403",
        "city_en": "lishu",
        "city_zh": "梨树",
        "country_code": "CN",
        "sup_city_en": "siping",
        "sup_city_zh": "四平",
        "latitude": "43.30831",
        "longitude": "124.335802"
      },
      {
        "code": "CN101060404",
        "city_en": "gongzhuling",
        "city_zh": "公主岭",
        "country_code": "CN",
        "sup_city_en": "siping",
        "sup_city_zh": "四平",
        "latitude": "43.509474",
        "longitude": "124.817588"
      },
      {
        "code": "CN101060405",
        "city_en": "yitong",
        "city_zh": "伊通",
        "country_code": "CN",
        "sup_city_en": "siping",
        "sup_city_zh": "四平",
        "latitude": "43.345464",
        "longitude": "125.303124"
      },
      {
        "code": "CN101060406",
        "city_en": "tiexi",
        "city_zh": "铁西",
        "country_code": "CN",
        "sup_city_en": "siping",
        "sup_city_zh": "四平",
        "latitude": "43.176263",
        "longitude": "124.360894"
      },
      {
        "code": "CN101060407",
        "city_en": "tiedong",
        "city_zh": "铁东",
        "country_code": "CN",
        "sup_city_en": "siping",
        "sup_city_zh": "四平",
        "latitude": "43.16726",
        "longitude": "124.388464"
      },
      {
        "code": "CN101060501",
        "city_en": "tonghua",
        "city_zh": "通化",
        "country_code": "CN",
        "sup_city_en": "tonghua",
        "sup_city_zh": "通化",
        "latitude": "41.721177",
        "longitude": "125.936501"
      },
      {
        "code": "CN101060502",
        "city_en": "meihekou",
        "city_zh": "梅河口",
        "country_code": "CN",
        "sup_city_en": "tonghua",
        "sup_city_zh": "通化",
        "latitude": "42.530002",
        "longitude": "125.687336"
      },
      {
        "code": "CN101060503",
        "city_en": "liuhe",
        "city_zh": "柳河",
        "country_code": "CN",
        "sup_city_en": "tonghua",
        "sup_city_zh": "通化",
        "latitude": "42.281484",
        "longitude": "125.740536"
      },
      {
        "code": "CN101060504",
        "city_en": "huinan",
        "city_zh": "辉南",
        "country_code": "CN",
        "sup_city_en": "tonghua",
        "sup_city_zh": "通化",
        "latitude": "42.683459",
        "longitude": "126.042821"
      },
      {
        "code": "CN101060505",
        "city_en": "jian",
        "city_zh": "集安",
        "country_code": "CN",
        "sup_city_en": "tonghua",
        "sup_city_zh": "通化",
        "latitude": "41.126276",
        "longitude": "126.186204"
      },
      {
        "code": "CN101060506",
        "city_en": "tonghuaxian",
        "city_zh": "通化县",
        "country_code": "CN",
        "sup_city_en": "tonghua",
        "sup_city_zh": "通化",
        "latitude": "41.677918",
        "longitude": "125.753121"
      },
      {
        "code": "CN101060507",
        "city_en": "dongchang",
        "city_zh": "东昌",
        "country_code": "CN",
        "sup_city_en": "tonghua",
        "sup_city_zh": "通化",
        "latitude": "41.721233",
        "longitude": "125.936716"
      },
      {
        "code": "CN101060508",
        "city_en": "erdaojiang",
        "city_zh": "二道江",
        "country_code": "CN",
        "sup_city_en": "tonghua",
        "sup_city_zh": "通化",
        "latitude": "41.777564",
        "longitude": "126.045987"
      },
      {
        "code": "CN101060601",
        "city_en": "baicheng",
        "city_zh": "白城",
        "country_code": "CN",
        "sup_city_en": "baicheng",
        "sup_city_zh": "白城",
        "latitude": "45.619026",
        "longitude": "122.841114"
      },
      {
        "code": "CN101060602",
        "city_en": "taonan",
        "city_zh": "洮南",
        "country_code": "CN",
        "sup_city_en": "baicheng",
        "sup_city_zh": "白城",
        "latitude": "45.339113",
        "longitude": "122.783779"
      },
      {
        "code": "CN101060603",
        "city_en": "daan",
        "city_zh": "大安",
        "country_code": "CN",
        "sup_city_en": "baicheng",
        "sup_city_zh": "白城",
        "latitude": "45.507648",
        "longitude": "124.291512"
      },
      {
        "code": "CN101060604",
        "city_en": "zhenlai",
        "city_zh": "镇赉",
        "country_code": "CN",
        "sup_city_en": "baicheng",
        "sup_city_zh": "白城",
        "latitude": "45.846089",
        "longitude": "123.202246"
      },
      {
        "code": "CN101060605",
        "city_en": "tongyu",
        "city_zh": "通榆",
        "country_code": "CN",
        "sup_city_en": "baicheng",
        "sup_city_zh": "白城",
        "latitude": "44.80915",
        "longitude": "123.088543"
      },
      {
        "code": "CN101060606",
        "city_en": "taobei",
        "city_zh": "洮北",
        "country_code": "CN",
        "sup_city_en": "baicheng",
        "sup_city_zh": "白城",
        "latitude": "45.619253",
        "longitude": "122.842499"
      },
      {
        "code": "CN101060701",
        "city_en": "liaoyuan",
        "city_zh": "辽源",
        "country_code": "CN",
        "sup_city_en": "liaoyuan",
        "sup_city_zh": "辽源",
        "latitude": "42.902692",
        "longitude": "125.145349"
      },
      {
        "code": "CN101060702",
        "city_en": "dongfeng",
        "city_zh": "东丰",
        "country_code": "CN",
        "sup_city_en": "liaoyuan",
        "sup_city_zh": "辽源",
        "latitude": "42.675228",
        "longitude": "125.529623"
      },
      {
        "code": "CN101060703",
        "city_en": "dongliao",
        "city_zh": "东辽",
        "country_code": "CN",
        "sup_city_en": "liaoyuan",
        "sup_city_zh": "辽源",
        "latitude": "42.927724",
        "longitude": "124.991995"
      },
      {
        "code": "CN101060704",
        "city_en": "longshan",
        "city_zh": "龙山",
        "country_code": "CN",
        "sup_city_en": "liaoyuan",
        "sup_city_zh": "辽源",
        "latitude": "42.902702",
        "longitude": "125.145164"
      },
      {
        "code": "CN101060705",
        "city_en": "xian",
        "city_zh": "西安",
        "country_code": "CN",
        "sup_city_en": "liaoyuan",
        "sup_city_zh": "辽源",
        "latitude": "42.920415",
        "longitude": "125.151424"
      },
      {
        "code": "CN101060801",
        "city_en": "songyuan",
        "city_zh": "松原",
        "country_code": "CN",
        "sup_city_en": "songyuan",
        "sup_city_zh": "松原",
        "latitude": "45.118243",
        "longitude": "124.823608"
      },
      {
        "code": "CN101060802",
        "city_en": "qianan",
        "city_zh": "乾安",
        "country_code": "CN",
        "sup_city_en": "songyuan",
        "sup_city_zh": "松原",
        "latitude": "45.006846",
        "longitude": "124.024361"
      },
      {
        "code": "CN101060803",
        "city_en": "qianguo",
        "city_zh": "前郭",
        "country_code": "CN",
        "sup_city_en": "songyuan",
        "sup_city_zh": "松原",
        "latitude": "45.116288",
        "longitude": "124.826808"
      },
      {
        "code": "CN101060804",
        "city_en": "changling",
        "city_zh": "长岭",
        "country_code": "CN",
        "sup_city_en": "songyuan",
        "sup_city_zh": "松原",
        "latitude": "44.276579",
        "longitude": "123.985184"
      },
      {
        "code": "CN101060805",
        "city_en": "fuyu",
        "city_zh": "扶余",
        "country_code": "CN",
        "sup_city_en": "songyuan",
        "sup_city_zh": "松原",
        "latitude": "44.986199",
        "longitude": "126.042758"
      },
      {
        "code": "CN101060806",
        "city_en": "ningjiang",
        "city_zh": "宁江",
        "country_code": "CN",
        "sup_city_en": "songyuan",
        "sup_city_zh": "松原",
        "latitude": "45.176498",
        "longitude": "124.827851"
      },
      {
        "code": "CN101060901",
        "city_en": "baishan",
        "city_zh": "白山",
        "country_code": "CN",
        "sup_city_en": "baishan",
        "sup_city_zh": "白山",
        "latitude": "41.942505",
        "longitude": "126.427839"
      },
      {
        "code": "CN101060902",
        "city_en": "jingyu",
        "city_zh": "靖宇",
        "country_code": "CN",
        "sup_city_en": "baishan",
        "sup_city_zh": "白山",
        "latitude": "42.389689",
        "longitude": "126.808386"
      },
      {
        "code": "CN101060903",
        "city_en": "linjiang",
        "city_zh": "临江",
        "country_code": "CN",
        "sup_city_en": "baishan",
        "sup_city_zh": "白山",
        "latitude": "41.810689",
        "longitude": "126.919296"
      },
      {
        "code": "CN101060905",
        "city_en": "changbai",
        "city_zh": "长白",
        "country_code": "CN",
        "sup_city_en": "baishan",
        "sup_city_zh": "白山",
        "latitude": "41.419361",
        "longitude": "128.203384"
      },
      {
        "code": "CN101060906",
        "city_en": "fusong",
        "city_zh": "抚松",
        "country_code": "CN",
        "sup_city_en": "baishan",
        "sup_city_zh": "白山",
        "latitude": "42.332643",
        "longitude": "127.273796"
      },
      {
        "code": "CN101060907",
        "city_en": "jiangyuan",
        "city_zh": "江源",
        "country_code": "CN",
        "sup_city_en": "baishan",
        "sup_city_zh": "白山",
        "latitude": "42.048109",
        "longitude": "126.584229"
      },
      {
        "code": "CN101060908",
        "city_en": "hunjiang",
        "city_zh": "浑江",
        "country_code": "CN",
        "sup_city_en": "baishan",
        "sup_city_zh": "白山",
        "latitude": "41.943065",
        "longitude": "126.428035"
      }
    ]
  },
  {
    "pro_zh": "辽宁",
    "pro_en": "liaoning",
    "cityList": [
      {
        "code": "CN101070101",
        "city_en": "shenyang",
        "city_zh": "沈阳",
        "country_code": "CN",
        "sup_city_en": "shenyang",
        "sup_city_zh": "沈阳",
        "latitude": "41.796767",
        "longitude": "123.429096"
      },
      {
        "code": "CN101070102",
        "city_en": "hunnan",
        "city_zh": "浑南",
        "country_code": "CN",
        "sup_city_en": "shenyang",
        "sup_city_zh": "沈阳",
        "latitude": "41.741946",
        "longitude": "123.458981"
      },
      {
        "code": "CN101070103",
        "city_en": "liaozhong",
        "city_zh": "辽中",
        "country_code": "CN",
        "sup_city_en": "shenyang",
        "sup_city_zh": "沈阳",
        "latitude": "41.512725",
        "longitude": "122.731269"
      },
      {
        "code": "CN101070104",
        "city_en": "kangping",
        "city_zh": "康平",
        "country_code": "CN",
        "sup_city_en": "shenyang",
        "sup_city_zh": "沈阳",
        "latitude": "42.741533",
        "longitude": "123.352703"
      },
      {
        "code": "CN101070105",
        "city_en": "faku",
        "city_zh": "法库",
        "country_code": "CN",
        "sup_city_en": "shenyang",
        "sup_city_zh": "沈阳",
        "latitude": "42.507045",
        "longitude": "123.416722"
      },
      {
        "code": "CN101070106",
        "city_en": "xinmin",
        "city_zh": "新民",
        "country_code": "CN",
        "sup_city_en": "shenyang",
        "sup_city_zh": "沈阳",
        "latitude": "41.996508",
        "longitude": "122.828868"
      },
      {
        "code": "CN101070107",
        "city_en": "heping",
        "city_zh": "和平",
        "country_code": "CN",
        "sup_city_en": "shenyang",
        "sup_city_zh": "沈阳",
        "latitude": "41.788074",
        "longitude": "123.406664"
      },
      {
        "code": "CN101070108",
        "city_en": "shenhe",
        "city_zh": "沈河",
        "country_code": "CN",
        "sup_city_en": "shenyang",
        "sup_city_zh": "沈阳",
        "latitude": "41.795591",
        "longitude": "123.445696"
      },
      {
        "code": "CN101070109",
        "city_en": "dadong",
        "city_zh": "大东",
        "country_code": "CN",
        "sup_city_en": "shenyang",
        "sup_city_zh": "沈阳",
        "latitude": "41.808503",
        "longitude": "123.469956"
      },
      {
        "code": "CN101070110",
        "city_en": "huanggu",
        "city_zh": "皇姑",
        "country_code": "CN",
        "sup_city_en": "shenyang",
        "sup_city_zh": "沈阳",
        "latitude": "41.822336",
        "longitude": "123.405677"
      },
      {
        "code": "CN101070111",
        "city_en": "tiexi",
        "city_zh": "铁西",
        "country_code": "CN",
        "sup_city_en": "shenyang",
        "sup_city_zh": "沈阳",
        "latitude": "41.787808",
        "longitude": "123.350664"
      },
      {
        "code": "CN101070112",
        "city_en": "sujiatun",
        "city_zh": "苏家屯",
        "country_code": "CN",
        "sup_city_en": "shenyang",
        "sup_city_zh": "沈阳",
        "latitude": "41.665904",
        "longitude": "123.341604"
      },
      {
        "code": "CN101070113",
        "city_en": "shenbeixinqu",
        "city_zh": "沈北新区",
        "country_code": "CN",
        "sup_city_en": "shenyang",
        "sup_city_zh": "沈阳",
        "latitude": "42.052312",
        "longitude": "123.521471"
      },
      {
        "code": "CN101070114",
        "city_en": "yuhong",
        "city_zh": "于洪",
        "country_code": "CN",
        "sup_city_en": "shenyang",
        "sup_city_zh": "沈阳",
        "latitude": "41.795833",
        "longitude": "123.310829"
      },
      {
        "code": "CN101070115",
        "city_en": "dongling",
        "city_zh": "东陵",
        "country_code": "CN",
        "sup_city_en": "shenyang",
        "sup_city_zh": "沈阳",
        "latitude": "41.741946",
        "longitude": "123.458981"
      },
      {
        "code": "CN101070201",
        "city_en": "dalian",
        "city_zh": "大连",
        "country_code": "CN",
        "sup_city_en": "dalian",
        "sup_city_zh": "大连",
        "latitude": "38.91459",
        "longitude": "121.618622"
      },
      {
        "code": "CN101070202",
        "city_en": "wafangdian",
        "city_zh": "瓦房店",
        "country_code": "CN",
        "sup_city_en": "dalian",
        "sup_city_zh": "大连",
        "latitude": "39.63065",
        "longitude": "122.002656"
      },
      {
        "code": "CN101070203",
        "city_en": "jinzhou",
        "city_zh": "金州",
        "country_code": "CN",
        "sup_city_en": "dalian",
        "sup_city_zh": "大连",
        "latitude": "39.052745",
        "longitude": "121.789413"
      },
      {
        "code": "CN101070204",
        "city_en": "pulandian",
        "city_zh": "普兰店",
        "country_code": "CN",
        "sup_city_en": "dalian",
        "sup_city_zh": "大连",
        "latitude": "39.401555",
        "longitude": "121.9705"
      },
      {
        "code": "CN101070205",
        "city_en": "lvshun",
        "city_zh": "旅顺",
        "country_code": "CN",
        "sup_city_en": "dalian",
        "sup_city_zh": "大连",
        "latitude": "38.812043",
        "longitude": "121.26713"
      },
      {
        "code": "CN101070206",
        "city_en": "changhai",
        "city_zh": "长海",
        "country_code": "CN",
        "sup_city_en": "dalian",
        "sup_city_zh": "大连",
        "latitude": "39.272399",
        "longitude": "122.587824"
      },
      {
        "code": "CN101070207",
        "city_en": "zhuanghe",
        "city_zh": "庄河",
        "country_code": "CN",
        "sup_city_en": "dalian",
        "sup_city_zh": "大连",
        "latitude": "39.69829",
        "longitude": "122.970612"
      },
      {
        "code": "CN101070208",
        "city_en": "zhongshan",
        "city_zh": "中山",
        "country_code": "CN",
        "sup_city_en": "dalian",
        "sup_city_zh": "大连",
        "latitude": "38.921553",
        "longitude": "121.64376"
      },
      {
        "code": "CN101070209",
        "city_en": "xigang",
        "city_zh": "西岗",
        "country_code": "CN",
        "sup_city_en": "dalian",
        "sup_city_zh": "大连",
        "latitude": "38.914266",
        "longitude": "121.616112"
      },
      {
        "code": "CN101070210",
        "city_en": "shahekou",
        "city_zh": "沙河口",
        "country_code": "CN",
        "sup_city_en": "dalian",
        "sup_city_zh": "大连",
        "latitude": "38.912859",
        "longitude": "121.593702"
      },
      {
        "code": "CN101070211",
        "city_en": "ganjingzi",
        "city_zh": "甘井子",
        "country_code": "CN",
        "sup_city_en": "dalian",
        "sup_city_zh": "大连",
        "latitude": "38.975148",
        "longitude": "121.582614"
      },
      {
        "code": "CN101070301",
        "city_en": "anshan",
        "city_zh": "鞍山",
        "country_code": "CN",
        "sup_city_en": "anshan",
        "sup_city_zh": "鞍山",
        "latitude": "41.110626",
        "longitude": "122.995632"
      },
      {
        "code": "CN101070302",
        "city_en": "taian",
        "city_zh": "台安",
        "country_code": "CN",
        "sup_city_en": "anshan",
        "sup_city_zh": "鞍山",
        "latitude": "41.38686",
        "longitude": "122.429736"
      },
      {
        "code": "CN101070303",
        "city_en": "xiuyan",
        "city_zh": "岫岩",
        "country_code": "CN",
        "sup_city_en": "anshan",
        "sup_city_zh": "鞍山",
        "latitude": "40.281509",
        "longitude": "123.28833"
      },
      {
        "code": "CN101070304",
        "city_en": "haicheng",
        "city_zh": "海城",
        "country_code": "CN",
        "sup_city_en": "anshan",
        "sup_city_zh": "鞍山",
        "latitude": "40.852533",
        "longitude": "122.752199"
      },
      {
        "code": "CN101070305",
        "city_en": "tiedong",
        "city_zh": "铁东",
        "country_code": "CN",
        "sup_city_en": "anshan",
        "sup_city_zh": "鞍山",
        "latitude": "41.110344",
        "longitude": "122.994475"
      },
      {
        "code": "CN101070306",
        "city_en": "tiexi",
        "city_zh": "铁西",
        "country_code": "CN",
        "sup_city_en": "anshan",
        "sup_city_zh": "鞍山",
        "latitude": "41.11069",
        "longitude": "122.971834"
      },
      {
        "code": "CN101070307",
        "city_en": "lishan",
        "city_zh": "立山",
        "country_code": "CN",
        "sup_city_en": "anshan",
        "sup_city_zh": "鞍山",
        "latitude": "41.150622",
        "longitude": "123.024806"
      },
      {
        "code": "CN101070308",
        "city_en": "qianshan",
        "city_zh": "千山",
        "country_code": "CN",
        "sup_city_en": "anshan",
        "sup_city_zh": "鞍山",
        "latitude": "41.068909",
        "longitude": "122.949298"
      },
      {
        "code": "CN101070401",
        "city_en": "fushun",
        "city_zh": "抚顺",
        "country_code": "CN",
        "sup_city_en": "fushun",
        "sup_city_zh": "抚顺",
        "latitude": "41.922644",
        "longitude": "124.097979"
      },
      {
        "code": "CN101070402",
        "city_en": "xinbin",
        "city_zh": "新宾",
        "country_code": "CN",
        "sup_city_en": "fushun",
        "sup_city_zh": "抚顺",
        "latitude": "41.732456",
        "longitude": "125.037547"
      },
      {
        "code": "CN101070403",
        "city_en": "qingyuan",
        "city_zh": "清原",
        "country_code": "CN",
        "sup_city_en": "fushun",
        "sup_city_zh": "抚顺",
        "latitude": "42.10135",
        "longitude": "124.927192"
      },
      {
        "code": "CN101070405",
        "city_en": "xinfu",
        "city_zh": "新抚",
        "country_code": "CN",
        "sup_city_en": "fushun",
        "sup_city_zh": "抚顺",
        "latitude": "41.86082",
        "longitude": "123.902858"
      },
      {
        "code": "CN101070406",
        "city_en": "dongzhou",
        "city_zh": "东洲",
        "country_code": "CN",
        "sup_city_en": "fushun",
        "sup_city_zh": "抚顺",
        "latitude": "41.866829",
        "longitude": "124.047219"
      },
      {
        "code": "CN101070407",
        "city_en": "wanghua",
        "city_zh": "望花",
        "country_code": "CN",
        "sup_city_en": "fushun",
        "sup_city_zh": "抚顺",
        "latitude": "41.851803",
        "longitude": "123.801509"
      },
      {
        "code": "CN101070408",
        "city_en": "shuncheng",
        "city_zh": "顺城",
        "country_code": "CN",
        "sup_city_en": "fushun",
        "sup_city_zh": "抚顺",
        "latitude": "41.881132",
        "longitude": "123.917165"
      },
      {
        "code": "CN101070501",
        "city_en": "benxi",
        "city_zh": "本溪",
        "country_code": "CN",
        "sup_city_en": "benxi",
        "sup_city_zh": "本溪",
        "latitude": "41.297909",
        "longitude": "123.770519"
      },
      {
        "code": "CN101070502",
        "city_en": "benxixian",
        "city_zh": "本溪县",
        "country_code": "CN",
        "sup_city_en": "benxi",
        "sup_city_zh": "本溪",
        "latitude": "41.18",
        "longitude": "124.17"
      },
      {
        "code": "CN101070503",
        "city_en": "pingshan",
        "city_zh": "平山",
        "country_code": "CN",
        "sup_city_en": "benxi",
        "sup_city_zh": "本溪",
        "latitude": "41.291581",
        "longitude": "123.761231"
      },
      {
        "code": "CN101070504",
        "city_en": "huanren",
        "city_zh": "桓仁",
        "country_code": "CN",
        "sup_city_en": "benxi",
        "sup_city_zh": "本溪",
        "latitude": "41.268997",
        "longitude": "125.359195"
      },
      {
        "code": "CN101070505",
        "city_en": "xihu",
        "city_zh": "溪湖",
        "country_code": "CN",
        "sup_city_en": "benxi",
        "sup_city_zh": "本溪",
        "latitude": "41.330056",
        "longitude": "123.765226"
      },
      {
        "code": "CN101070506",
        "city_en": "mingshan",
        "city_zh": "明山",
        "country_code": "CN",
        "sup_city_en": "benxi",
        "sup_city_zh": "本溪",
        "latitude": "41.302429",
        "longitude": "123.763288"
      },
      {
        "code": "CN101070507",
        "city_en": "nanfen",
        "city_zh": "南芬",
        "country_code": "CN",
        "sup_city_en": "benxi",
        "sup_city_zh": "本溪",
        "latitude": "41.104093",
        "longitude": "123.748381"
      },
      {
        "code": "CN101070601",
        "city_en": "dandong",
        "city_zh": "丹东",
        "country_code": "CN",
        "sup_city_en": "dandong",
        "sup_city_zh": "丹东",
        "latitude": "40.124296",
        "longitude": "124.383044"
      },
      {
        "code": "CN101070602",
        "city_en": "fengcheng",
        "city_zh": "凤城",
        "country_code": "CN",
        "sup_city_en": "dandong",
        "sup_city_zh": "丹东",
        "latitude": "40.457567",
        "longitude": "124.071067"
      },
      {
        "code": "CN101070603",
        "city_en": "kuandian",
        "city_zh": "宽甸",
        "country_code": "CN",
        "sup_city_en": "dandong",
        "sup_city_zh": "丹东",
        "latitude": "40.730412",
        "longitude": "124.784867"
      },
      {
        "code": "CN101070604",
        "city_en": "donggang",
        "city_zh": "东港",
        "country_code": "CN",
        "sup_city_en": "dandong",
        "sup_city_zh": "丹东",
        "latitude": "39.883467",
        "longitude": "124.149437"
      },
      {
        "code": "CN101070605",
        "city_en": "yuanbao",
        "city_zh": "元宝",
        "country_code": "CN",
        "sup_city_en": "dandong",
        "sup_city_zh": "丹东",
        "latitude": "40.136483",
        "longitude": "124.397814"
      },
      {
        "code": "CN101070606",
        "city_en": "zhenxing",
        "city_zh": "振兴",
        "country_code": "CN",
        "sup_city_en": "dandong",
        "sup_city_zh": "丹东",
        "latitude": "40.102801",
        "longitude": "124.361153"
      },
      {
        "code": "CN101070607",
        "city_en": "zhenan",
        "city_zh": "振安",
        "country_code": "CN",
        "sup_city_en": "dandong",
        "sup_city_zh": "丹东",
        "latitude": "40.158557",
        "longitude": "124.427709"
      },
      {
        "code": "CN101070701",
        "city_en": "jinzhou",
        "city_zh": "锦州",
        "country_code": "CN",
        "sup_city_en": "jinzhou",
        "sup_city_zh": "锦州",
        "latitude": "41.119269",
        "longitude": "121.135742"
      },
      {
        "code": "CN101070702",
        "city_en": "linghai",
        "city_zh": "凌海",
        "country_code": "CN",
        "sup_city_en": "jinzhou",
        "sup_city_zh": "锦州",
        "latitude": "41.171738",
        "longitude": "121.364236"
      },
      {
        "code": "CN101070703",
        "city_en": "guta",
        "city_zh": "古塔",
        "country_code": "CN",
        "sup_city_en": "jinzhou",
        "sup_city_zh": "锦州",
        "latitude": "41.115719",
        "longitude": "121.130085"
      },
      {
        "code": "CN101070704",
        "city_en": "yixian",
        "city_zh": "义县",
        "country_code": "CN",
        "sup_city_en": "jinzhou",
        "sup_city_zh": "锦州",
        "latitude": "41.537224",
        "longitude": "121.242831"
      },
      {
        "code": "CN101070705",
        "city_en": "heishan",
        "city_zh": "黑山",
        "country_code": "CN",
        "sup_city_en": "jinzhou",
        "sup_city_zh": "锦州",
        "latitude": "41.691804",
        "longitude": "122.117915"
      },
      {
        "code": "CN101070706",
        "city_en": "beizhen",
        "city_zh": "北镇",
        "country_code": "CN",
        "sup_city_en": "jinzhou",
        "sup_city_zh": "锦州",
        "latitude": "41.598764",
        "longitude": "121.795962"
      },
      {
        "code": "CN101070707",
        "city_en": "linghe",
        "city_zh": "凌河",
        "country_code": "CN",
        "sup_city_en": "jinzhou",
        "sup_city_zh": "锦州",
        "latitude": "41.114662",
        "longitude": "121.151304"
      },
      {
        "code": "CN101070708",
        "city_en": "taihe",
        "city_zh": "太和",
        "country_code": "CN",
        "sup_city_en": "jinzhou",
        "sup_city_zh": "锦州",
        "latitude": "41.105378",
        "longitude": "121.107297"
      },
      {
        "code": "CN101070801",
        "city_en": "yingkou",
        "city_zh": "营口",
        "country_code": "CN",
        "sup_city_en": "yingkou",
        "sup_city_zh": "营口",
        "latitude": "40.667432",
        "longitude": "122.235151"
      },
      {
        "code": "CN101070802",
        "city_en": "dashiqiao",
        "city_zh": "大石桥",
        "country_code": "CN",
        "sup_city_en": "yingkou",
        "sup_city_zh": "营口",
        "latitude": "40.633973",
        "longitude": "122.505894"
      },
      {
        "code": "CN101070803",
        "city_en": "gaizhou",
        "city_zh": "盖州",
        "country_code": "CN",
        "sup_city_en": "yingkou",
        "sup_city_zh": "营口",
        "latitude": "40.405234",
        "longitude": "122.355534"
      },
      {
        "code": "CN101070804",
        "city_en": "zhanqian",
        "city_zh": "站前",
        "country_code": "CN",
        "sup_city_en": "yingkou",
        "sup_city_zh": "营口",
        "latitude": "40.669949",
        "longitude": "122.253235"
      },
      {
        "code": "CN101070805",
        "city_en": "xishi",
        "city_zh": "西市",
        "country_code": "CN",
        "sup_city_en": "yingkou",
        "sup_city_zh": "营口",
        "latitude": "40.663086",
        "longitude": "122.210067"
      },
      {
        "code": "CN101070806",
        "city_en": "bayuquan",
        "city_zh": "鲅鱼圈",
        "country_code": "CN",
        "sup_city_en": "yingkou",
        "sup_city_zh": "营口",
        "latitude": "40.263646",
        "longitude": "122.127242"
      },
      {
        "code": "CN101070807",
        "city_en": "laobian",
        "city_zh": "老边",
        "country_code": "CN",
        "sup_city_en": "yingkou",
        "sup_city_zh": "营口",
        "latitude": "40.682723",
        "longitude": "122.382584"
      },
      {
        "code": "CN101070901",
        "city_en": "fuxin",
        "city_zh": "阜新",
        "country_code": "CN",
        "sup_city_en": "fuxin",
        "sup_city_zh": "阜新",
        "latitude": "42.058607",
        "longitude": "121.743125"
      },
      {
        "code": "CN101070902",
        "city_en": "zhangwu",
        "city_zh": "彰武",
        "country_code": "CN",
        "sup_city_en": "fuxin",
        "sup_city_zh": "阜新",
        "latitude": "42.384823",
        "longitude": "122.537444"
      },
      {
        "code": "CN101070903",
        "city_en": "haizhou",
        "city_zh": "海州",
        "country_code": "CN",
        "sup_city_en": "fuxin",
        "sup_city_zh": "阜新",
        "latitude": "42.011162",
        "longitude": "121.657639"
      },
      {
        "code": "CN101070904",
        "city_en": "xinqiu",
        "city_zh": "新邱",
        "country_code": "CN",
        "sup_city_en": "fuxin",
        "sup_city_zh": "阜新",
        "latitude": "42.086603",
        "longitude": "121.790541"
      },
      {
        "code": "CN101070905",
        "city_en": "taiping",
        "city_zh": "太平",
        "country_code": "CN",
        "sup_city_en": "fuxin",
        "sup_city_zh": "阜新",
        "latitude": "42.011145",
        "longitude": "121.677575"
      },
      {
        "code": "CN101070906",
        "city_en": "qinghemen",
        "city_zh": "清河门",
        "country_code": "CN",
        "sup_city_en": "fuxin",
        "sup_city_zh": "阜新",
        "latitude": "41.780477",
        "longitude": "121.42018"
      },
      {
        "code": "CN101070907",
        "city_en": "xihe",
        "city_zh": "细河",
        "country_code": "CN",
        "sup_city_en": "fuxin",
        "sup_city_zh": "阜新",
        "latitude": "42.019218",
        "longitude": "121.654791"
      },